[{"id":"2848f2e3-bd77-4b20-96f5-adb2153b46ed","name":"궁중 떡집","address":"서울 금천구 금하로 25길 16, 1층(시흥동)","lat":37.4512056,"lng":126.9096366,"layer_type":"baeknyeon","city":"서울","source_url":null},{"id":"40968300-0683-41a1-b246-c1c16351b0d2","name":"용인떡집","address":"경기 용인시 처인구 금령로93번길 12-1(김량장동)","lat":37.3073612,"lng":127.0854544,"layer_type":"baeknyeon","city":"경기","source_url":"https://pf.kakao.com/_AFxlvn"},{"id":"1cc04176-a205-4979-9895-e1cbad1d8f07","name":"자인방앗간","address":"대구 달서구 당산로 35, 바동 2호(본리동, 달서종합상가)","lat":35.8401945,"lng":128.544242,"layer_type":"baeknyeon","city":"대구","source_url":"https://smartstore.naver.com/"},{"id":"857f1da3-e972-4d24-b33d-70f6a63b61ec","name":"온정떡집","address":"전남 순천시 북문길 11(매곡동)","lat":34.957776,"lng":127.484555,"layer_type":"baeknyeon","city":"전남","source_url":null},{"id":"cf18ec52-b8bb-42c0-ba2b-3dee571cd990","name":"송림병","address":"경기 고양시 일산서구 대화로 130, 104호(대화동, 한내프라자)","lat":37.6703223,"lng":126.7347485,"layer_type":"baeknyeon","city":"경기","source_url":"http://instagram.com/songrimbyeong"},{"id":"c43bd6d7-cf84-4bcd-ae8c-5d689579ec33","name":"㈜여의도떡방","address":"서울 강남구 삼성로 150(대치동, 미도상가 지하1층 17,18,19,82,83호)","lat":37.4948995,"lng":127.0666243,"layer_type":"baeknyeon","city":"서울","source_url":"http://www.wadduk.co.kr/"},{"id":"14be8045-37fa-45ad-a21c-a4b2936bc7be","name":"고향떡집","address":"경기 고양시 일산동구 일산로 197, 1층 1064, 1065, 1066, 1067호 (마두동, 센터21)","lat":37.6537649,"lng":126.7901323,"layer_type":"baeknyeon","city":"경기","source_url":null},{"id":"d676c681-375b-4e2e-be8e-765103e67d87","name":"떡서방콩고물각시","address":"경북 포항시 북구 천마로72번길 22(양덕동)","lat":36.0829235,"lng":129.3997166,"layer_type":"baeknyeon","city":"경북","source_url":"https://smartstore.naver.com/tteocksoup9989"},{"id":"aed10a97-d672-4b21-9b52-c71b47346ec7","name":"왈츠와닥터만","address":"경기 남양주시 조안면 북한강로 856-37","lat":37.5917958,"lng":127.3382976,"layer_type":"baeknyeon","city":"경기","source_url":"https://www.instagram.com/waltzndrmahn"},{"id":"db5944f9-d744-4474-a723-9c853e8c3e7a","name":"늘채움","address":"전북 전주시 덕진구 덕진연못3길 6","lat":35.8465625,"lng":127.1206342,"layer_type":"baeknyeon","city":"전북","source_url":"https://app.catchtable.co.kr/ct/shop/always_filling_up"},{"id":"c6bf536a-5945-497e-9afc-05809fa6feab","name":"대림동삼거리먼지막순대국","address":"서울 영등포구 시흥대로 185길 11","lat":37.4917462,"lng":126.9072201,"layer_type":"baeknyeon","city":"서울","source_url":"http://itvplus.co.kr/home6/sam/"},{"id":"2a44e368-faa0-4ab4-aa33-622fc15d2a4b","name":"만석장","address":"서울 은평구 대서문길 43-10 2층","lat":37.6558587,"lng":126.9495788,"layer_type":"baeknyeon","city":"서울","source_url":null},{"id":"15e139cd-9bb3-428e-93f9-3751559e7a3f","name":"선천집","address":"서울 종로구 인사동  14길5","lat":37.574875,"lng":126.9844138,"layer_type":"baeknyeon","city":"서울","source_url":null},{"id":"c0e066ad-ea8c-44b8-a6d9-49fdd0f68992","name":"와우","address":"서울 마포구 와우산로37길 11, 1층(동교동)","lat":37.5509828,"lng":126.9619901,"layer_type":"baeknyeon","city":"서울","source_url":null},{"id":"6d625481-52e5-4927-81c5-1a389f234473","name":"부산복집","address":"서울 중구 수표로2길 25","lat":37.5583184,"lng":126.9728056,"layer_type":"baeknyeon","city":"서울","source_url":null},{"id":"75a411dc-123c-4975-a797-540b010d65bf","name":"쉐라미","address":"부산 사하구 낙동대로 238","lat":35.0997034,"lng":128.9910361,"layer_type":"baeknyeon","city":"부산","source_url":null},{"id":"0ec076b5-0c21-45cc-b383-9990908c35de","name":"외바우","address":"경북 경주시 안강읍 산대리 2402-6","lat":36.0011213,"lng":129.195584,"layer_type":"baeknyeon","city":"경북","source_url":"https://blog.naver.com/soonju2062"},{"id":"1d778656-eaaf-45a6-baa6-26ada48ab738","name":"하나로회관","address":"서울 종로구 인사동5길25","lat":37.5721264,"lng":126.985314,"layer_type":"baeknyeon","city":"서울","source_url":null},{"id":"40f9cf2a-96d7-42e3-a056-f39aa072bf21","name":"향원복집","address":"제주 서귀포시 부두로43","lat":33.2411923,"lng":126.5647518,"layer_type":"baeknyeon","city":"제주","source_url":null},{"id":"fa0c48b1-952e-493b-b8d6-d4a09ed8fc90","name":"공원당","address":"충북 청주시 상당구 상당로 55번길 40-2","lat":36.6329906,"lng":127.4885905,"layer_type":"baeknyeon","city":"충북","source_url":"https://www.facebook.com/공원당-588674804671485/"},{"id":"0d7ebe36-803c-4f9b-8a31-cfc1c1b4cf7d","name":"동래할매파전","address":"부산 동래구 명륜로 94번길 43-10","lat":35.2046698,"lng":129.0838163,"layer_type":"baeknyeon","city":"부산","source_url":"http://www.dongnaepajeon.co.kr/"},{"id":"8fff1ec9-10fa-4119-a2e3-474ecbd72286","name":"재건갈비","address":"충북 청주시 서원구 청남로 2104","lat":36.6197384,"lng":127.4877868,"layer_type":"baeknyeon","city":"충북","source_url":null},{"id":"3b090c01-450f-4835-8a21-b732a45ae85b","name":"철원막국수","address":"강원 철원군 갈말읍 명성로 158번길 13","lat":38.1460242,"lng":127.3086802,"layer_type":"baeknyeon","city":"강원","source_url":"http://www.철원맛집.kr"},{"id":"cd568cf2-f5a0-479f-b4fc-6338f7624d03","name":"남주동해장국","address":"충북 청주시 상당구 무심동로304번길 10(남주동)","lat":36.629257,"lng":127.485175,"layer_type":"baeknyeon","city":"충북","source_url":null},{"id":"909ba5c0-ee78-4edd-98b6-e9f2c6f41382","name":"동승춘","address":"강원 삼척시 대학로 12","lat":37.442148,"lng":129.1634799,"layer_type":"baeknyeon","city":"강원","source_url":null},{"id":"15284849-411d-44ab-8f25-d1137b25ed7a","name":"딴뚝통나무집식당","address":"충남 태안군 안면읍 조운막터길 23-22","lat":36.5094329,"lng":126.350988,"layer_type":"baeknyeon","city":"충남","source_url":"http://www.ttanttuk.co.kr"},{"id":"6445bcc9-9a28-4c9b-b97b-43e84aacb235","name":"언양한우불고기","address":"울산 울주군 언양읍 서부리 58-3","lat":35.564852,"lng":129.121785,"layer_type":"baeknyeon","city":"울산","source_url":"http://blog.naver.com/getorey"},{"id":"24b7f7cd-857e-423c-8480-9329add8e829","name":"큰댁","address":"충남 천안시 서북구 서정중4길 30","lat":36.8267399,"lng":127.1362498,"layer_type":"baeknyeon","city":"충남","source_url":null},{"id":"b3bafa60-de1d-4ae6-a683-0c63c365f2e5","name":"77돌곱창","address":"부산 사상구 괘감로 98(감전동)","lat":35.1571263,"lng":128.9850474,"layer_type":"baeknyeon","city":"부산","source_url":null},{"id":"1cd7a373-2d31-47bd-bd47-f65fa736d69f","name":"금수장장어구이","address":"충북 청주시 서원구 현도면 청남로 16","lat":36.4581355,"lng":127.4284555,"layer_type":"baeknyeon","city":"충북","source_url":null},{"id":"be5f3522-e160-4fbc-9628-0ece5f56665f","name":"메바우명가춘천막국수","address":"강원 춘천시 당간지주길 76","lat":37.8922728,"lng":127.7238673,"layer_type":"baeknyeon","city":"강원","source_url":"http://www.ccmks.com/"},{"id":"1b042cec-82a0-4f38-a9d1-280cf4c202f8","name":"부영선지국","address":"인천 미추홀구 장천로 14번길 20","lat":37.458644,"lng":126.6473317,"layer_type":"baeknyeon","city":"인천","source_url":"http://www.sunjy.kr/"},{"id":"a0af76ee-ce85-4e2a-a0b3-4c5bfe486fce","name":"새만포면옥","address":"서울 은평구 연서로 171(갈현동. 동연빌딩 1,2층)","lat":37.614177,"lng":126.9175294,"layer_type":"baeknyeon","city":"서울","source_url":"https://www.instagram.com/manpo.official"},{"id":"8dd7cf1e-13c7-47f4-bcb1-125811c3a68f","name":"송애집","address":"충북 진천군 초평면 초평로 1053-5","lat":36.8134198,"lng":127.5178154,"layer_type":"baeknyeon","city":"충북","source_url":null},{"id":"a5dbedde-8fee-4f15-ba25-2373336b9fbf","name":"신안촌","address":"서울 종로구 사직로 12길8","lat":37.6077822,"lng":126.9649182,"layer_type":"baeknyeon","city":"서울","source_url":null},{"id":"313a9479-446f-4101-b253-ce3fce419cb4","name":"일송면옥","address":"부산 금정구 부곡로 141번길 6","lat":35.2286496,"lng":129.0917996,"layer_type":"baeknyeon","city":"부산","source_url":"https://blog.naver.com/eric_light"},{"id":"02960ad4-6725-4220-a6d4-ba8b7eb09521","name":"죽도집","address":"부산 기장군 기장읍 연화리 112 15/1","lat":35.2195077,"lng":129.2268885,"layer_type":"baeknyeon","city":"부산","source_url":null},{"id":"fc17184a-20ca-4ce7-ac25-1db9655a31b0","name":"지동관","address":"경기 의정부시 의정부동 196-14","lat":37.7399921,"lng":127.0483116,"layer_type":"baeknyeon","city":"경기","source_url":"https://www.instagram.com/jidongkwan"},{"id":"1ed8aa96-d7aa-4cba-b47e-c5cf0bc576e4","name":"창성옥","address":"서울 용산구 새창로 124-10","lat":37.5363864,"lng":126.9604033,"layer_type":"baeknyeon","city":"서울","source_url":"https://smartstore.naver.com/changsungok/products/6016564327?nl-query=창성옥+밀키트"},{"id":"df3c3598-bf0c-43bc-b0ee-fca309781f85","name":"청해진","address":"서울 강동구 강동대로 187,102호(성내동, 파크뷰캐슬)","lat":37.5248091,"lng":127.1273087,"layer_type":"baeknyeon","city":"서울","source_url":null},{"id":"e29b5b77-dd74-4699-89e6-d19837a09589","name":"큰마을영양굴밥","address":"충남 서산시 부석면 간월도 1길 65","lat":36.609533,"lng":126.4164467,"layer_type":"baeknyeon","city":"충남","source_url":"http://www.gulbab.com/"},{"id":"6f583584-48e0-4d7e-9f6d-2b5b3fc51334","name":"풍미통닭","address":"전남 순천시 성남뒷길3","lat":34.9324629,"lng":127.5141245,"layer_type":"baeknyeon","city":"전남","source_url":"http://instagram.com/pungmi_chicken"},{"id":"d373fd15-321f-41c1-b4d1-c84b0eb24396","name":"함흥냉면옥","address":"강원 속초시 청초호반로 299","lat":38.2019835,"lng":128.5898752,"layer_type":"baeknyeon","city":"강원","source_url":"http://www.속초맛집.kr"},{"id":"17e4086d-33b4-446f-af02-2f5f01c128e5","name":"88완당집","address":"부산 해운대구 윗반송로31번길 113-17(반송동, 외 2필지)","lat":35.2325188,"lng":129.1548058,"layer_type":"baeknyeon","city":"부산","source_url":"https://blog.naver.com/seongjoo7"},{"id":"5e4bfd08-f2c3-4980-ac51-db58973955ee","name":"개미집 본점","address":"부산 중구 중구로30번길 20-2(신창동1가)","lat":35.1007818,"lng":129.0301021,"layer_type":"baeknyeon","city":"부산","source_url":null},{"id":"6c8ba121-2afa-4ead-bd41-201169a88f48","name":"구백식당","address":"전남 여수시 여객선터미널길 18","lat":34.7387761,"lng":127.732058,"layer_type":"baeknyeon","city":"전남","source_url":null},{"id":"30272c07-e3ea-4b39-9c76-e4e10816500d","name":"남한산성은행나무집","address":"경기 광주시 남한산성면 남한산성로 772","lat":37.4781604,"lng":127.1847854,"layer_type":"baeknyeon","city":"경기","source_url":null},{"id":"bd7f51f9-6edf-434f-bd5b-81e1920ac5ac","name":"도지골등나무집","address":"강원 춘천시 신북읍 상천3길 2","lat":37.9328679,"lng":127.7927601,"layer_type":"baeknyeon","city":"강원","source_url":null},{"id":"32a5cf03-15c5-4cf4-a42b-9369abc59345","name":"마방(마일드치킨)","address":"충남 서산시 번화1로 41-1(동문동)","lat":36.7827144,"lng":126.4539656,"layer_type":"baeknyeon","city":"충남","source_url":null},{"id":"a52027a5-4ab6-4571-a7ac-d1c90fd84d30","name":"무진장갈비촌","address":"전북 익산시 선화로 31길58","lat":35.9505906,"lng":126.9559675,"layer_type":"baeknyeon","city":"전북","source_url":null},{"id":"2ad5f121-7e7b-4f32-90a9-ee53f0149f0a","name":"미진과자점","address":"경남 창원시 진해구 충장로130(충무동)","lat":35.1518151,"lng":128.6660569,"layer_type":"baeknyeon","city":"경남","source_url":null},{"id":"b88b8e36-99af-47af-9b5e-738eb6e8024a","name":"밀밭베이커리","address":"대구 중구 국채보상로 602-1","lat":35.8704343,"lng":128.5965662,"layer_type":"baeknyeon","city":"대구","source_url":"https://blog.naver.com/interpol7292"},{"id":"3e20581d-ca67-4f46-af26-40706f3ae83f","name":"복서울해장국","address":"충북 충주시 관아1길 16(성내동)","lat":36.9702742,"lng":127.9351782,"layer_type":"baeknyeon","city":"충북","source_url":null},{"id":"bd4f437c-84de-4e56-9dd5-ee160ccc7be4","name":"삼화정","address":"인천 남동구 간석동 176-5","lat":37.4646378,"lng":126.709008,"layer_type":"baeknyeon","city":"인천","source_url":null},{"id":"f45510a9-efbd-46df-9a2d-7cbca57ba0c1","name":"선동보리밥","address":"서울 성북구 성북로 134-4, 1층(성북동)","lat":37.5947215,"lng":126.9951505,"layer_type":"baeknyeon","city":"서울","source_url":null},{"id":"1c9a78de-95f2-4741-9189-1150c9c9372b","name":"신포순대 신포시장본점","address":"인천 중구 제물량로 166번길 33 (신포동 1층)","lat":37.4714994,"lng":126.6262869,"layer_type":"baeknyeon","city":"인천","source_url":"https://smartstore.naver.com/sinpooondae1978"},{"id":"a5401200-1077-42f4-8a86-523ab52b149b","name":"신흥장어","address":"전남 나주시 다시면 구진포로 58","lat":35.0067712,"lng":126.6725472,"layer_type":"baeknyeon","city":"전남","source_url":null},{"id":"c1379bb6-f05b-4c80-a140-ba9b0b526aff","name":"온천입구 기장곰장어","address":"부산 동래구 명륜로 270(명륜동)","lat":35.216964,"lng":129.0859208,"layer_type":"baeknyeon","city":"부산","source_url":null},{"id":"31485a6e-3ad6-428c-a6ce-1459e1a28b56","name":"이방식당","address":"경남 창녕군 이방면 옥야길1","lat":35.6015659,"lng":128.382573,"layer_type":"baeknyeon","city":"경남","source_url":null},{"id":"c19b90b4-2eb8-4716-bb55-f2d3f7e49a7d","name":"장안면옥","address":"경기 안성시 중앙로 371번길 54","lat":37.0099167,"lng":127.26945,"layer_type":"baeknyeon","city":"경기","source_url":null},{"id":"4d83a381-0402-4df3-84a7-a3cd60d7862a","name":"중앙집","address":"경남 진주시 동성동 212-4(1층)","lat":35.1917262,"lng":128.0856307,"layer_type":"baeknyeon","city":"경남","source_url":null},{"id":"16eeedd8-5d24-48a2-ae8a-2d3528e887c6","name":"진해제과","address":"경남 창원시 진해구 중원로43번길 4(광화동)","lat":35.148231,"lng":128.6592619,"layer_type":"baeknyeon","city":"경남","source_url":null},{"id":"664b0cf4-44f3-4c2a-8be2-69d0116bc302","name":"형제돌구이","address":"대전 유성구 계룡로 52번길 14","lat":36.3632584,"lng":127.3584992,"layer_type":"baeknyeon","city":"대전","source_url":null},{"id":"5ca7f543-b380-4e32-8af8-08f34944ee14","name":"고복수냉면","address":"경기 평택시 조개터로 1번길  71(합정동)","lat":36.9896665,"lng":127.0996976,"layer_type":"baeknyeon","city":"경기","source_url":null},{"id":"f32e5f04-4a80-49ad-a5ff-0ca6c1b443f6","name":"남들갈비","address":"충북 청주시 서원구 청남로 2133번길 8(모충동)","lat":36.622782,"lng":127.4875293,"layer_type":"baeknyeon","city":"충북","source_url":null},{"id":"722fca69-d963-4eac-a29d-58161f208051","name":"대장군식당","address":"충북 충주시 수안보면 미륵송계로 105","lat":36.8417606,"lng":128.0161749,"layer_type":"baeknyeon","city":"충북","source_url":"https://youtube.com/channel/UCkCukBvpvfBVRrH8IYpDlVw?si=_Ht9lFY55AE1rqSd"},{"id":"76a1ea9b-2593-4c5a-87a7-342d414f84e7","name":"돈비어천가","address":"인천 중구 내동 203-11","lat":37.4725951,"lng":126.6285838,"layer_type":"baeknyeon","city":"인천","source_url":null},{"id":"488cd7b8-04fd-4823-a44a-6f5c085658bb","name":"원주복추어탕","address":"강원 원주시 치악로 1748(개운동)","lat":37.3385403,"lng":127.9564159,"layer_type":"baeknyeon","city":"강원","source_url":null},{"id":"3d708d86-d659-44dd-af68-537cb1276109","name":"삼미족발","address":"충북 청주시 청원구 향군로35(우암동 347-3)","lat":36.6488827,"lng":127.4865411,"layer_type":"baeknyeon","city":"충북","source_url":null},{"id":"4f7b75c5-9837-4f28-ba37-63b6c0243716","name":"쌍용반점","address":"전북 군산시 내항2길 121(금동)","lat":35.9931093,"lng":126.710245,"layer_type":"baeknyeon","city":"전북","source_url":null},{"id":"9de6b7f0-2210-40ad-9c99-100290005fee","name":"은정갈비","address":"충남 아산시 온궁로 5","lat":36.7826493,"lng":127.0012397,"layer_type":"baeknyeon","city":"충남","source_url":null},{"id":"2d9b9901-2374-4679-af43-5a452782bb1d","name":"일미해장국","address":"충북 옥천군 옥천읍 금장로 105","lat":36.2982477,"lng":127.5744179,"layer_type":"baeknyeon","city":"충북","source_url":null},{"id":"0138ef40-6648-436b-854e-c822fa38cf98","name":"전동집","address":"인천 연수구 앵고개로 103번길 25, 2층(동춘동)","lat":37.4150325,"lng":126.6563434,"layer_type":"baeknyeon","city":"인천","source_url":"https://smartstore.naver.com/jeondongzip"},{"id":"d1337e28-d182-43b5-83d6-a3fb38b58670","name":"정화네하우스","address":"대구 북구 칠성남로 216 (칠성동1가)","lat":35.8761917,"lng":128.6037143,"layer_type":"baeknyeon","city":"대구","source_url":null},{"id":"f1415255-3067-405b-8ce7-c798a236fdda","name":"진미옥설농탕","address":"서울 송파구 가락로16길 3-12, 1층 107호(석촌동, 성창빌딩)","lat":37.5011392,"lng":127.1090936,"layer_type":"baeknyeon","city":"서울","source_url":null},{"id":"4b567b48-d0cf-4319-8577-bc500de20e14","name":"금정산성 창녕집","address":"부산 금정구 금성동 876","lat":35.2445479,"lng":129.0552985,"layer_type":"baeknyeon","city":"부산","source_url":"http://www.instagram.com/gimceolhwa8"},{"id":"fbb5271a-272d-4b89-be87-671fc1b5efe6","name":"거구장갈비","address":"경남 통영시 동충2길 22-3(항남동)","lat":34.8404533,"lng":128.4230016,"layer_type":"baeknyeon","city":"경남","source_url":"https://055-645-0029.webworx.co.kr"},{"id":"380bf536-4c42-4cec-8ce4-b65246d94045","name":"대구갈비","address":"경북 경주시 북정로 5","lat":35.8414629,"lng":129.215177,"layer_type":"baeknyeon","city":"경북","source_url":null},{"id":"97599e69-40de-425c-81c5-f80bf3a872be","name":"대동할매국수","address":"경남 김해시 대동면 동남로45번길 8","lat":35.2368905,"lng":128.9938718,"layer_type":"baeknyeon","city":"경남","source_url":"https://blog.naver.com/daedong_noodle"},{"id":"3a7d3b82-f3fb-404f-86da-18b8c1beaa6a","name":"대일정","address":"전북 정읍시 태인면 대성리 483-5","lat":35.6517763,"lng":126.942964,"layer_type":"baeknyeon","city":"전북","source_url":null},{"id":"95e4c3d3-deb7-45c2-9d45-9e5eb1f28f68","name":"대호정","address":"서울 금천구 시행대로 52길 51(시흥동)","lat":37.4536732,"lng":126.9017142,"layer_type":"baeknyeon","city":"서울","source_url":null},{"id":"38e982ea-1855-4c26-abf6-bc11e6d91db5","name":"동원가든","address":"충북 제천시 봉양읍 제원로10길 55","lat":37.1868381,"lng":128.1040504,"layer_type":"baeknyeon","city":"충북","source_url":null},{"id":"0c0c2a4f-ace3-4cc2-89e8-913cd5a3551c","name":"리정식당","address":"충북 청주시 청원구 우암로 71-1(내덕동)","lat":36.6544736,"lng":127.4866603,"layer_type":"baeknyeon","city":"충북","source_url":null},{"id":"35d07d91-0eb8-4989-89e2-cdfedaca9402","name":"물망초식당","address":"전남 여수시 충무동 485-3","lat":34.7415532,"lng":127.7316431,"layer_type":"baeknyeon","city":"전남","source_url":null},{"id":"2efb11c7-1846-4ee9-8f8d-bbeb520f4eab","name":"미락복집","address":"경기 성남시 분당구 구미로9번길 25, 108호","lat":37.340198,"lng":127.1099458,"layer_type":"baeknyeon","city":"경기","source_url":null},{"id":"0cfe6a14-0919-45a5-914e-6d0c9cc6914d","name":"보문각","address":"강원 춘천시 약사고개길 42(약사동)","lat":37.8746693,"lng":127.72641,"layer_type":"baeknyeon","city":"강원","source_url":null},{"id":"605a0f2d-02b4-42fc-9bfd-8784e62bb0aa","name":"복화루","address":"인천 부평구 부평대로32번길 16, 1층 A호 101호","lat":37.4943357,"lng":126.7239436,"layer_type":"baeknyeon","city":"인천","source_url":null},{"id":"59e071a5-73be-47a9-910f-fd279fafaf1d","name":"성천막국수","address":"서울 동대무 답십리로 48나길 2, 1층(답십리동)","lat":37.51037,"lng":127.0206035,"layer_type":"baeknyeon","city":"서울","source_url":null},{"id":"59839e59-a200-4ff7-9ac0-516d49af6b38","name":"유락식당","address":"전북 군산시 해망로 146-25","lat":35.9878999,"lng":126.7206298,"layer_type":"baeknyeon","city":"전북","source_url":null},{"id":"63c9624f-eb67-4dee-8385-b4b627cd7548","name":"이화회집","address":"경기 화성시 우정읍 이화5리 매화길 2","lat":37.0272788,"lng":126.7953025,"layer_type":"baeknyeon","city":"경기","source_url":null},{"id":"59cf495a-75f1-4089-8eb1-fcfb570d4445","name":"조선옥갈비","address":"강원 태백시 시장북2길 5-1","lat":37.1735071,"lng":128.9919358,"layer_type":"baeknyeon","city":"강원","source_url":null},{"id":"92746357-feea-4fc5-915b-5407fe02d4b4","name":"참깨국수","address":"대구 수성구 무학로31길 55 1층","lat":35.8330091,"lng":128.6265643,"layer_type":"baeknyeon","city":"대구","source_url":null},{"id":"9dcfa57e-9252-4d1f-897a-3ccaf844d685","name":"축산본점식육식당","address":"경북 영주시 번영로 173번길 10","lat":36.8268225,"lng":128.6240214,"layer_type":"baeknyeon","city":"경북","source_url":"http://www.chooksan.com/"},{"id":"94f46172-944c-4c12-b6d7-eceffc000bcb","name":"평남식당","address":"경북 포항시 북구 죽도시장3길 9-10","lat":36.0358708,"lng":129.3654387,"layer_type":"baeknyeon","city":"경북","source_url":"http://죽도시장맛집.한국"},{"id":"af47e9cd-52f0-4bfd-836d-7d29cc4fdcc1","name":"하동복집","address":"경남 진주시 중앙시장길 29-5(대안동, 171,172 중앙시장 3구 98,99,100)","lat":35.19476,"lng":128.084982,"layer_type":"baeknyeon","city":"경남","source_url":null},{"id":"99618aba-3abc-467b-beeb-cfeca80709f6","name":"함흥막국수","address":"강원 속초시 중앙로54번길 3(교동)","lat":38.2004131,"lng":128.5823849,"layer_type":"baeknyeon","city":"강원","source_url":null},{"id":"b2cb4d43-36c0-4a47-9a5a-cedcd84a9856","name":"해태식당","address":"전남 강진군 강진읍 서성안길 6","lat":34.6391169,"lng":126.7672349,"layer_type":"baeknyeon","city":"전남","source_url":null},{"id":"1619a004-7c23-4f8c-8285-0d3550ee0cec","name":"햇님제과점","address":"대구 중구 달구벌대로389길 70","lat":35.866284,"lng":128.5757322,"layer_type":"baeknyeon","city":"대구","source_url":null},{"id":"84018114-0273-4d15-80d5-b0cd9890a2f5","name":"화정소바","address":"경남 의령군 의령읍 의병로 18번길 9-3","lat":35.318905,"lng":128.2606558,"layer_type":"baeknyeon","city":"경남","source_url":null},{"id":"bde5a88b-dd7e-4696-8936-5731100e4621","name":"경방루","address":"전북 남원시 광한북로 29(금동)","lat":35.4055638,"lng":127.3796048,"layer_type":"baeknyeon","city":"전북","source_url":null},{"id":"92ee75c6-d8da-47ec-95b3-5ade92bebb9d","name":"고궁삼계탕","address":"울산 남구 돋질로 180(달동)","lat":35.5411607,"lng":129.3249526,"layer_type":"baeknyeon","city":"울산","source_url":null},{"id":"9b9d0e27-75d0-4a0f-a43f-3a847796ee74","name":"고려분식","address":"경북 상주시 중앙시장길 26(남성동)","lat":36.4145203,"lng":128.1617412,"layer_type":"baeknyeon","city":"경북","source_url":null},{"id":"54855fc4-b75a-4031-945c-8264adb9e450","name":"고려회관","address":"대전 중구 중앙로109번길 30, 2층","lat":36.3286164,"lng":127.4216226,"layer_type":"baeknyeon","city":"대전","source_url":null},{"id":"2ed5cd6f-8b60-4021-92a5-ad855f8f2035","name":"고심통숯불갈비육전선지국","address":"경남 하동군 하동읍 시장1길 20, 1층(시장상설점포 382,383,394,385)호)","lat":35.0689176,"lng":127.7488665,"layer_type":"baeknyeon","city":"경남","source_url":null},{"id":"c5dfc965-88b9-4b98-b25c-b6544eaaca96","name":"구옹진식당","address":"충남 서산시 번화2로 8-2","lat":36.7802917,"lng":126.4498478,"layer_type":"baeknyeon","city":"충남","source_url":null},{"id":"be992951-1111-47b6-9c97-e133f70b250b","name":"극동제과점","address":"대전 중구 충무로 73","lat":36.3172917,"lng":127.4257003,"layer_type":"baeknyeon","city":"대전","source_url":null},{"id":"bc96fd21-9750-43ab-a6e6-1863fd9b86d9","name":"대남통닭","address":"경북 경주시 금성로 295, 3동 1호(성건동, 중앙시장)","lat":35.8439615,"lng":129.2067461,"layer_type":"baeknyeon","city":"경북","source_url":null},{"id":"05afecbd-f250-4b54-87cc-aecc3365728f","name":"대문점","address":"서울 영등포구 영증로10길 30(영등포동3가)","lat":37.5186246,"lng":126.9085558,"layer_type":"baeknyeon","city":"서울","source_url":null},{"id":"5e749eb3-82ec-408b-8bf6-58705258ca18","name":"대풍옥","address":"인천 강화군 교동면 대룡안길 54번길 28","lat":37.7815751,"lng":126.2806469,"layer_type":"baeknyeon","city":"인천","source_url":"https://www.hanjineasyorder.com/item_list.php?slt_idx=238"},{"id":"cd551dc3-6160-4fde-be5c-7ffeb9b99fe6","name":"삼육식당","address":"경북 포항시 남구 오천읍 문덕로43번길 6-4","lat":35.9584841,"lng":129.4033983,"layer_type":"baeknyeon","city":"경북","source_url":null},{"id":"43ebe297-3556-4e2d-822e-47b737748be5","name":"(주)시민제과","address":"경북 포항시 북구 불종로 48, 지하,1,2,3,4층(대흥동)","lat":36.0383823,"lng":129.3647098,"layer_type":"baeknyeon","city":"경북","source_url":"https://siminbakery.com/"},{"id":"a42b4011-d200-4bf5-9136-e745b89cb80b","name":"왕돼지갈비식당","address":"경북 포항시 남구 송도로 34(송도동)","lat":36.033404,"lng":129.374693,"layer_type":"baeknyeon","city":"경북","source_url":"http://왕돼지갈비.com"},{"id":"bdcc1649-bf35-439b-9235-02d50077f543","name":"최정자백년식당","address":"대구 북구 원대로 113, 1층(노원동1가)","lat":35.8875819,"lng":128.5824129,"layer_type":"baeknyeon","city":"대구","source_url":null},{"id":"3c60c5f4-1b60-4826-8dfd-0cfe679eddac","name":"싱글벙글숯불막창식당","address":"대구 북구 경진로1길 13(복현동)","lat":35.896676,"lng":128.6149251,"layer_type":"baeknyeon","city":"대구","source_url":null},{"id":"0f2db4e5-a1ef-4d0e-ac57-88f1d7bf2591","name":"태화장","address":"대전 동구 중앙로 203번길78(정동)","lat":36.3338072,"lng":127.4293243,"layer_type":"baeknyeon","city":"대전","source_url":null},{"id":"dff93757-380d-43ec-b08f-ab1838bd74e1","name":"솔밭묵집","address":"대전 유성구 관용로 51(관평동)","lat":36.4150596,"lng":127.3822655,"layer_type":"baeknyeon","city":"대전","source_url":"https://www.instagram.com/solbat_mj/"},{"id":"d7b6bf42-5716-4b11-8850-eabd842b2db7","name":"로쏘 주식회사(성심당)","address":"대전 중구 대종로480번길 15(은행동)","lat":36.3752845,"lng":127.3922447,"layer_type":"baeknyeon","city":"대전","source_url":"https://www.sungsimdang.co.kr"},{"id":"7ff2ad7f-9d1d-46f5-852d-e8c5f3182782","name":"시쥬","address":"대전 중구 중앙로 지하 145, 가열12호,13호(선화동, C구역)","lat":36.3277784,"lng":127.4233055,"layer_type":"baeknyeon","city":"대전","source_url":null},{"id":"99f55137-260d-4fb6-8c3d-4ac51f965860","name":"곰보식당","address":"부산 사상구 낙동대로 1564(삼락동, (구포동1190번지 부속주차장))","lat":35.1965885,"lng":128.9877793,"layer_type":"baeknyeon","city":"부산","source_url":null},{"id":"a0520a09-0deb-4915-a4ce-7f749f64d069","name":"파밀리아제과점","address":"부산 사상구 대동로 101, 1층(학장동)","lat":35.1386739,"lng":128.9786555,"layer_type":"baeknyeon","city":"부산","source_url":null},{"id":"f8937c49-1e34-4a8f-b2cb-f951db9b9d91","name":"광나루순대","address":"서울 광진구 아차산로 621, 1층 105호(광장동)","lat":37.5484506,"lng":127.1071667,"layer_type":"baeknyeon","city":"서울","source_url":null},{"id":"30c3a6d3-18d8-4f9d-b5f3-4dfd1218e0b4","name":"두부박사","address":"서울 금천구 금하로25길 10(시흥동)","lat":37.4512937,"lng":126.9093278,"layer_type":"baeknyeon","city":"서울","source_url":"https://blog.naver.com/tofu_been"},{"id":"ee4d0d40-97fd-41ac-bd68-71c907885119","name":"만두라","address":"서울 금천구 시흥대로 97, 53호(시흥동, 유통비지원)","lat":37.4432495,"lng":126.9020617,"layer_type":"baeknyeon","city":"서울","source_url":null},{"id":"57e5f4de-7867-438c-b957-ffbc3ca3bdd6","name":"장안정","address":"서울 동대문구 답십리로 291-3(장안동)","lat":37.5727111,"lng":127.0727065,"layer_type":"baeknyeon","city":"서울","source_url":null},{"id":"92ddfe1c-9040-4d65-a7a5-099e3234cf5b","name":"나폴레옹과자점","address":"서울 성북구 성북로 7(성북동1가, 외1필지)","lat":37.5888994,"lng":127.0051951,"layer_type":"baeknyeon","city":"서울","source_url":"https://napoleonbakery.co.kr"},{"id":"db7b806b-74d0-4d04-bde4-a81ae108ae14","name":"㈜대신제과","address":"서울 성북구 아리랑로 32(동선동5가)","lat":37.5956047,"lng":127.0160255,"layer_type":"baeknyeon","city":"서울","source_url":"http://www.walnutcake.co.kr/"},{"id":"ab5008f0-7212-41d6-adf9-b582671a553f","name":"태조감자국","address":"서울 성북구 보문로34길 43, 1층(동선동1가)","lat":37.59078,"lng":127.01771,"layer_type":"baeknyeon","city":"서울","source_url":"https://blog.naver.com/taejo1958"},{"id":"b485e900-ba44-4073-89b9-c30f95a8b3e5","name":"찬우정","address":"인천 강화군 선원면 중앙로 322, 1층","lat":37.7199964,"lng":126.4753982,"layer_type":"baeknyeon","city":"인천","source_url":"https://smartstore.naver.com/cksdnwjd"},{"id":"b0b7a72f-46eb-43e5-90ce-5b00bc929112","name":"황해모밀냉면","address":"인천 남동구 구월말로 92(만수동)","lat":37.4571096,"lng":126.7253925,"layer_type":"baeknyeon","city":"인천","source_url":null},{"id":"a3c9c87f-bebe-48fc-9af4-04315ad60831","name":"삼강옥","address":"인천 중구 참외전로 158번길 1(경동)","lat":37.4730695,"lng":126.6340807,"layer_type":"baeknyeon","city":"인천","source_url":"https://www.instagram.com/samgangok"},{"id":"87ffc713-644e-413d-bbc0-a1b818b44260","name":"순천 건봉국밥","address":"전남 순천시 장평로 65, 1층(인제동)","lat":34.9455695,"lng":127.4940184,"layer_type":"baeknyeon","city":"전남","source_url":"https://smartstore.naver.com/gunbong1987"},{"id":"97894d55-805b-4c1e-9df4-5de18c5bf97d","name":"명월갈비","address":"전북 군산시 구영7길 59(신창동)","lat":35.9864185,"lng":126.7101555,"layer_type":"baeknyeon","city":"전북","source_url":"http://ok114.co.kr/0634458283"},{"id":"b4ca35e9-f122-46d4-ae03-299bbd434524","name":"유정초밥","address":"전북 군산시 대학로 6-4(영화동)","lat":35.9890977,"lng":126.7127645,"layer_type":"baeknyeon","city":"전북","source_url":null},{"id":"864ca565-83e4-47f3-b5ca-541b24293775","name":"일흥옥","address":"전북 군산시 구영7길 25(월명동, 일흥옥)","lat":35.9851479,"lng":126.7091707,"layer_type":"baeknyeon","city":"전북","source_url":null},{"id":"fd64fd54-51e3-4256-b6b8-112c8b4eacca","name":"소씨네 흥부골 남원추어탕","address":"전북 남원시 인월면 천왕봉로 62-8","lat":35.4597296,"lng":127.6052084,"layer_type":"baeknyeon","city":"전북","source_url":"https://www.instagram.com/_heungbugol_/?hl=ko"},{"id":"353bc5df-8038-4885-a029-5aa6cfc591a9","name":"한양불고기","address":"전북 전주시 완산구 우전2길 6(효자동2가)","lat":35.805043,"lng":127.1083085,"layer_type":"baeknyeon","city":"전북","source_url":null},{"id":"f43130ef-c8b3-4f4d-87c2-3e701182bd46","name":"한일관본점","address":"전북 전주시 완산구 어은로 48(중화산동2가)","lat":35.8176368,"lng":127.1280438,"layer_type":"baeknyeon","city":"전북","source_url":null},{"id":"85630a90-c7c5-4669-befa-c06013cce8da","name":"명성불고기집","address":"충남 공주시 유구읍 중앙1길 107","lat":36.5542479,"lng":126.9509715,"layer_type":"baeknyeon","city":"충남","source_url":null},{"id":"652247f8-47dc-4331-b2f1-c7405b25cce2","name":"광천원조어죽","address":"충남 홍성군 광천읍 광천로329번길 24","lat":36.5026923,"lng":126.6243059,"layer_type":"baeknyeon","city":"충남","source_url":"https://blog.naver.com/ukj1001"},{"id":"78240c73-cc37-49d2-a36f-dca50bb7e727","name":"곰가내","address":"충북 진천군 백곡면 구수리 76-2","lat":36.8855415,"lng":127.3691491,"layer_type":"baeknyeon","city":"충북","source_url":"https://blog.naver.com/anwon0908"},{"id":"d970d4b8-e4a9-48ec-9c7f-c67deae1f6f5","name":"물머리집","address":"전북 익산시 금마면 고도1길 56-5","lat":35.9978772,"lng":127.0538825,"layer_type":"baeknyeon","city":"전북","source_url":null},{"id":"e5d3ba40-d58b-4a97-8ad5-62f2b185ee8f","name":"동해순대국집","address":"강원 속초시 중앙로 129번길 35-17(금호동)","lat":38.2045551,"lng":128.5889155,"layer_type":"baeknyeon","city":"강원","source_url":"http://동해순대국집.com/"},{"id":"5767fdb7-b639-42ac-a34e-8d09fcf7535d","name":"마라톤집","address":"부산 부산진구 가야대로784번길 54(부전동)","lat":35.1551029,"lng":129.0571449,"layer_type":"baeknyeon","city":"부산","source_url":null},{"id":"941598b9-5cc7-4ccf-9299-e793115e92de","name":"매일회관","address":"전북 김제시 남북로 140","lat":35.7975179,"lng":126.8871034,"layer_type":"baeknyeon","city":"전북","source_url":"https://instagram.com/1982_gimj?igshid=ydvbxqyymxmt"},{"id":"e383d52e-8142-4d5d-afc3-32da0a5d9fca","name":"명랑식당","address":"대전 동구 태전로 56-20","lat":36.3355079,"lng":127.4288606,"layer_type":"baeknyeon","city":"대전","source_url":"http://www.myongrang.com"},{"id":"9b27263a-a8be-41e5-9260-1426f8f8cfaa","name":"민부곤과자점","address":"서울 노원구 한글비석로 474, 157호(상계동, 보람상가)","lat":37.6647625,"lng":127.0651503,"layer_type":"baeknyeon","city":"서울","source_url":null},{"id":"1b058adf-a6f9-4ece-a409-864c43e569e7","name":"백제가든","address":"전북 익산시 선화로 65길 34-10","lat":35.9523389,"lng":126.9892454,"layer_type":"baeknyeon","city":"전북","source_url":null},{"id":"673d1322-75b0-46ec-95d1-8e1a27fbf5cd","name":"보은집","address":"충남 논산시 연무읍 감바위로 30번길 6","lat":36.122198,"lng":127.1293742,"layer_type":"baeknyeon","city":"충남","source_url":"http://instagram.com/nonsan_boeunjib"},{"id":"16fe32e2-39a5-4dcd-96a3-f4f1c9339e1d","name":"부일식당","address":"인천 부평구 경원대로 1270 (부평동)","lat":37.4896231,"lng":126.7107591,"layer_type":"baeknyeon","city":"인천","source_url":null},{"id":"ecebef57-ce24-4b98-a5f7-c51bfc9f8b5c","name":"삼원일식","address":"서울 서대문구 통일로9안길 32, 2층(충정로2가)","lat":37.56875,"lng":126.979454,"layer_type":"baeknyeon","city":"서울","source_url":null},{"id":"57b33855-4e9c-4716-a815-f8f91044f9c7","name":"석양집","address":"서울 마포구 토정로35길 12(용강동, 제이동 제지하층 8호, 9호)","lat":37.5397625,"lng":126.9440593,"layer_type":"baeknyeon","city":"서울","source_url":"https://blog.naver.com/mapoker"},{"id":"b517f825-ac3d-4e87-af8b-f79f904eb64f","name":"성미당","address":"전북 전주시 완산구 전라감영 5길 19-9","lat":35.8173592,"lng":127.1454456,"layer_type":"baeknyeon","city":"전북","source_url":"https://www.instagram.com/sungmidang"},{"id":"0990d81e-2919-4d79-b024-bd5bde4bb8d6","name":"송어의집","address":"강원 평창군 평창읍 아랫상리길 19-4","lat":37.363807,"lng":128.415377,"layer_type":"baeknyeon","city":"강원","source_url":"http://instagram.com/trouts_house"},{"id":"06a4244b-5c28-4b8f-b607-b195a125389d","name":"신가네 정읍국밥 본점","address":"전북 정읍시 수성5로 17(수성동)","lat":35.585586,"lng":126.8583115,"layer_type":"baeknyeon","city":"전북","source_url":"https://smartstore.naver.com/shingane0"},{"id":"957d7714-d41b-48a7-9bd4-1d88bc1763bc","name":"장모육계유통","address":"경남 창원시 마산회원구 내서읍 광려천남로 75","lat":35.2458631,"lng":128.5103308,"layer_type":"baeknyeon","city":"경남","source_url":"http://www.jangmonim.co.kr/"},{"id":"d48d6b72-8e9c-4589-af38-a30691e40d87","name":"충남왕족발","address":"충남 예산군 예산읍 사직로 25","lat":36.7712041,"lng":127.205954,"layer_type":"baeknyeon","city":"충남","source_url":null},{"id":"7484c3ee-b55b-4785-9f57-4bb27e8810d0","name":"털보아구탕","address":"경기 안산시 단원구 원초로 34 (원곡동, 남양상가)","lat":37.3275576,"lng":126.8017724,"layer_type":"baeknyeon","city":"경기","source_url":null},{"id":"d2c84dc5-d20c-432a-b847-c3f53ead82d2","name":"풍기삼계탕","address":"경북 영주시 중앙로 130(하망동)","lat":36.8267945,"lng":128.6265133,"layer_type":"baeknyeon","city":"경북","source_url":"http://www.pgsamgae.com/"},{"id":"f902c418-5c21-43b7-8665-1edb0af1bfb7","name":"한벽집","address":"전북 전주시 완산구 교동 2-9","lat":35.8119833,"lng":127.1600023,"layer_type":"baeknyeon","city":"전북","source_url":"https://www.instagram.com/hanbyeok_jip"},{"id":"18f1ebce-3915-4b14-bda8-9fcfb9be1c1b","name":"현대물텀벙이","address":"인천 동구 샛골로 140 (송림동)","lat":37.4748715,"lng":126.6445604,"layer_type":"baeknyeon","city":"인천","source_url":null},{"id":"9c79a354-9239-492b-9642-9730daa23ea1","name":"홍능갈비","address":"서울 도봉구 도봉로 157길 16 (도봉동)","lat":37.6736018,"lng":127.0431809,"layer_type":"baeknyeon","city":"서울","source_url":"http://food.dobong.go.kr/product/view1.asp?m_seq=52&pg=7&m_code=&c_code1=&c_code2=&SearchText="},{"id":"4199510a-979b-45c9-a9b9-0ba3d7a489cf","name":"화성식육식당","address":"전남 화순군 화순읍 칠중로 151","lat":35.0628387,"lng":126.9849125,"layer_type":"baeknyeon","city":"전남","source_url":"https://booking.naver.com/"},{"id":"b757720b-2b24-410d-938a-a823132dd43a","name":"이인순 남일꼼장어","address":"부산 영도구 절영로13번길 70(영선도 1가)","lat":35.0917669,"lng":129.0436023,"layer_type":"baeknyeon","city":"부산","source_url":"https://www.instagram.com/namilggom_official"},{"id":"8fee65d2-b0b7-4174-8656-f00c8ab9bb40","name":"단골통닭","address":"충남 공주시 산성동 182","lat":36.4583821,"lng":127.1234739,"layer_type":"baeknyeon","city":"충남","source_url":null},{"id":"8d4a067e-7ccc-4844-a4f2-3de8629a04a6","name":"대방회집","address":"서울 동작구 여의대방로 134-1 (대방동, 1층)","lat":37.4990184,"lng":126.920771,"layer_type":"baeknyeon","city":"서울","source_url":null},{"id":"02670867-d7aa-4ff2-970d-0b102a9c72d0","name":"동강오리","address":"서울 중랑구 용마산로115길 10 (망우동, 1층)","lat":37.5991426,"lng":127.0997128,"layer_type":"baeknyeon","city":"서울","source_url":"https://www.instagram.com/donggang52"},{"id":"e4371c89-4722-472f-95b6-43831e9ecd82","name":"뚱보냉면","address":"서울 중구 퇴계로 27 14(필동1가)","lat":37.6463009,"lng":127.0364808,"layer_type":"baeknyeon","city":"서울","source_url":"https://smartstore.naver.com/ddungbo_lab"},{"id":"5b80af8b-5b71-4ce0-a716-38824e5745ec","name":"김해만두 만리향","address":"경남 김해시 분성로335번길 4(동상동)","lat":35.2339298,"lng":128.8827818,"layer_type":"baeknyeon","city":"경남","source_url":"https://m.coupang.com/vm/products"},{"id":"a8e67321-0c93-40cf-83cb-e8a2d696df82","name":"벙글벙글찜갈비","address":"대구 중구 동덕로36길 9-12(동인동1가)","lat":35.8710052,"lng":128.6050989,"layer_type":"baeknyeon","city":"대구","source_url":"http://www.jjimgalbi.com/"},{"id":"867e2ba4-11eb-4e89-bb2b-24bde70502a6","name":"부일곱창","address":"경기 부천시 계남로 304(중동)","lat":37.5197037,"lng":126.7699079,"layer_type":"baeknyeon","city":"경기","source_url":null},{"id":"1e7da722-177a-4954-b66b-6d63c99fe004","name":"부일횟집","address":"경남 거제시 장승포로 101(장승포동)","lat":34.8631585,"lng":128.7297512,"layer_type":"baeknyeon","city":"경남","source_url":null},{"id":"4afdee0f-cc99-4484-8077-ff1ac2840d56","name":"송극","address":"광주 광산구 광산로 19번길 10(송정동)","lat":35.1386881,"lng":126.7938055,"layer_type":"baeknyeon","city":"광주","source_url":null},{"id":"4078c656-f293-4abf-8e01-9b8e5a6550ad","name":"신사동족발","address":"울산 중구 번영로 546(반구동)","lat":35.5671806,"lng":129.3424554,"layer_type":"baeknyeon","city":"울산","source_url":null},{"id":"ab975af7-fa85-4a69-b1d6-55a3bce16260","name":"일미장어","address":"서울 용산구 후암로 57길 35-15(동자동)","lat":37.5521681,"lng":126.9743381,"layer_type":"baeknyeon","city":"서울","source_url":"http://blog.daum.net/ilmijangeo"},{"id":"975f0480-fc25-4171-9a79-bdcd57015084","name":"폭포수식당","address":"경기 안양시 만안구 석수동 850-3","lat":37.4188457,"lng":126.9311354,"layer_type":"baeknyeon","city":"경기","source_url":null},{"id":"e6c0526a-232d-4fd7-981b-eaf6073c8cce","name":"할매횟집","address":"경남 창녕군 남지읍 선창길 17","lat":35.387779,"lng":128.482585,"layer_type":"baeknyeon","city":"경남","source_url":null},{"id":"16370ff9-2307-4b59-9da0-5389d8d05b40","name":"함흥보쌈","address":"부산 영도구 남항로 42(영선동2가)","lat":35.0884744,"lng":129.0410453,"layer_type":"baeknyeon","city":"부산","source_url":"https://www.instagram.com/hamheungbossam"},{"id":"316a05d5-3148-46ca-a339-3bf991b0d94a","name":"황산냉면","address":"서울 송파구 가락로 257(방이동)","lat":37.5109614,"lng":127.1185182,"layer_type":"baeknyeon","city":"서울","source_url":null},{"id":"2e045cce-ff34-403c-a31a-d4853bcaeb00","name":"흐르는물","address":"인천광역시 중구 우현로39번길 19, 2층(신포동)","lat":37.4709152,"lng":126.6256925,"layer_type":"baeknyeon","city":"인천","source_url":"http://instagram.com/flowing.water_"},{"id":"6baaec3d-ac69-4756-ab21-f8e8d34fd3a1","name":"가선식당","address":"충북 영동군 양산면 금강로 760(음식점)","lat":36.1249156,"lng":127.600964,"layer_type":"baeknyeon","city":"충북","source_url":null},{"id":"ac40c71b-804e-432b-918d-3d0fa9544d82","name":"건계정","address":"경남 거창군 거창읍 거안로 1173-21","lat":35.6926796,"lng":127.8791991,"layer_type":"baeknyeon","city":"경남","source_url":null},{"id":"7070aec5-f402-4bfe-a7a9-6ea100f1f7d1","name":"궁전관","address":"광주 남구 신만산길 66(원산동)","lat":35.0947725,"lng":126.8493831,"layer_type":"baeknyeon","city":"광주","source_url":null},{"id":"10788463-af3a-4449-b26b-0d479a866c81","name":"도일처","address":"서울 강서구 개화동로 567(방화동)","lat":37.5619462,"lng":126.8077434,"layer_type":"baeknyeon","city":"서울","source_url":"https://smartstore.naver.com/doilcho"},{"id":"8b65a947-bc6b-4898-b2c6-bd8e0b94ba8a","name":"마당숯불갈비","address":"경북 영주시 번영로173번길 7(영주동)","lat":36.826475,"lng":128.6241875,"layer_type":"baeknyeon","city":"경북","source_url":null},{"id":"ba2aafe1-29a2-42c5-9904-0b5300893871","name":"방자네 (산골물)","address":"서울 종로구 인사동16길 8-1(관훈동)","lat":37.57515,"lng":126.984325,"layer_type":"baeknyeon","city":"서울","source_url":null},{"id":"a09a6bd3-0fac-4501-b838-8be64d0913d5","name":"샛별초가집식당","address":"경남 거창군 거창읍 시장1길 9","lat":35.6852957,"lng":127.9124714,"layer_type":"baeknyeon","city":"경남","source_url":null},{"id":"06167fac-b185-4981-91c1-7fdddec58618","name":"성안식당","address":"제주 제주시 애월읍 애월로11길 5","lat":33.4648003,"lng":126.3201695,"layer_type":"baeknyeon","city":"제주","source_url":null},{"id":"99da1f84-7bfd-4ff3-959b-e8e53c057b7c","name":"숯골원냉면","address":"대전 유성구 신성로84번길 18(신성동)","lat":36.3560656,"lng":127.3417549,"layer_type":"baeknyeon","city":"대전","source_url":null},{"id":"66146695-f448-409e-97f8-77cd4a78598a","name":"영화장","address":"서울 동대문구 휘경로 3-8(이문동)","lat":37.5965687,"lng":127.0609498,"layer_type":"baeknyeon","city":"서울","source_url":null},{"id":"834a7543-4f84-4420-a91f-ba43ab102ffc","name":"옛장터숯불갈비","address":"충북 옥천군 이원면 이원로 809","lat":36.2447343,"lng":127.6261382,"layer_type":"baeknyeon","city":"충북","source_url":null},{"id":"161f0930-23ce-43ca-b81a-77a15513a8f3","name":"유구식당","address":"충남 공주시 유구읍 시장길 33-4","lat":36.553351,"lng":126.951557,"layer_type":"baeknyeon","city":"충남","source_url":null},{"id":"658158df-f9f2-4764-ae53-a9c9ba9d71d3","name":"인하찹쌀순대","address":"경기 부천시 심곡로34번길 43(송내동)","lat":37.4810548,"lng":126.7730677,"layer_type":"baeknyeon","city":"경기","source_url":"http://www.facebook.com/inhasoondea"},{"id":"82c9cdb1-9f8a-41cc-964e-701140278b7b","name":"일력","address":"전북 정읍시 수성동 중앙1길 63(수성동)","lat":35.5688463,"lng":126.8522165,"layer_type":"baeknyeon","city":"전북","source_url":null},{"id":"624ac60b-bfb2-4fa4-8f22-36a846300e33","name":"장미칼국수","address":"전북 군산시 큰샘길 26(죽성동)","lat":35.9854961,"lng":126.7164609,"layer_type":"baeknyeon","city":"전북","source_url":"https://smartstore.naver.com/gunsan_jangkal"},{"id":"d49c4d26-4cd1-49ff-9e73-929f9dbcf2ad","name":"장흥회관","address":"경기 이천시 중리천로 8-1(중리동)","lat":37.2802292,"lng":127.4388669,"layer_type":"baeknyeon","city":"경기","source_url":"https://blog.naver.com/jangheunghoegwan"},{"id":"072fe262-9605-4a84-bd10-3b30e6996f5b","name":"초당할머니순두부","address":"강원 강릉시 초당순두부길 77(초당동)","lat":37.7905247,"lng":128.915326,"layer_type":"baeknyeon","city":"강원","source_url":null},{"id":"f8251eea-d53b-4ce0-8566-e289addeef15","name":"초리골초계탕","address":"경기 파주시 법원읍 초리골길 110","lat":37.8511583,"lng":126.889531,"layer_type":"baeknyeon","city":"경기","source_url":null},{"id":"925e3df0-60bf-45f2-9737-6257f4bc62da","name":"태극당","address":"서울 중구 동호로24길 7(장충동2가)","lat":37.5595531,"lng":127.0051314,"layer_type":"baeknyeon","city":"서울","source_url":"https://smartstore.naver.com/tgd_1946"},{"id":"fac69dfb-1b00-4ac1-97aa-feff9cc41d6b","name":"팔팔순대국","address":"강원 속초시 중앙로129번길 35-13, 1~2층(금호동)","lat":38.2043788,"lng":128.5889386,"layer_type":"baeknyeon","city":"강원","source_url":null},{"id":"a936041b-5807-47df-b32f-724a02bb2530","name":"함흥냉면","address":"서울 영등포구 영등포로 42길 6, 1층(영등포동 3가)","lat":37.5189822,"lng":126.9067909,"layer_type":"baeknyeon","city":"서울","source_url":null},{"id":"89e766f0-0520-42fe-b082-c932e4182002","name":"동광식당","address":"강원 정선군 정선읍 녹송1길 27","lat":37.3830072,"lng":128.6715972,"layer_type":"baeknyeon","city":"강원","source_url":null},{"id":"b5c3a192-66bf-4f2e-89cc-61f1a452f743","name":"원주일미통닭","address":"강원 춘천시 서부대성로 140-2(운교동)","lat":37.8773451,"lng":127.7350339,"layer_type":"baeknyeon","city":"강원","source_url":null},{"id":"4212b312-eac0-4f1f-88bc-e136292af201","name":"샘밭막국수","address":"강원 춘천시 신북읍 신샘밭로 644","lat":37.9295269,"lng":127.7813618,"layer_type":"baeknyeon","city":"강원","source_url":null},{"id":"88724a52-7273-4554-94cd-06c96b00b69a","name":"원조남부막국수","address":"강원 춘천시 춘천로 56(효자동)","lat":37.869501,"lng":127.72433,"layer_type":"baeknyeon","city":"강원","source_url":"https://blog.naver.com/asmine05"},{"id":"25fbb263-ee43-45eb-b915-e381f1d3c0cf","name":"원조어부집","address":"경기 파주시 파평면 장승배기로 366번길 15","lat":37.8967303,"lng":126.8192127,"layer_type":"baeknyeon","city":"경기","source_url":null},{"id":"db7d6176-6a49-41c2-a553-9fe5cc13a570","name":"선화소곰탕식당","address":"경북 경산시 진량읍 동자길 65, 1층","lat":35.8733806,"lng":128.8042237,"layer_type":"baeknyeon","city":"경북","source_url":null},{"id":"433430bc-b6d6-45f7-a187-09cb3d0abe6b","name":"이흥용베이커리","address":"부산 남구 수영로39번길 2-1(문현동)","lat":35.1371212,"lng":129.0724068,"layer_type":"baeknyeon","city":"부산","source_url":"https://blog.naver.com/bakery1995/224222312545"},{"id":"d66e6c4e-4459-4038-b8ce-6b5739dff004","name":"할매팥빙수단팥죽","address":"부산 남구 용호로90번길 24, 1층 102호(용호동,삼성아파트 상가동)","lat":35.1241806,"lng":129.1110345,"layer_type":"baeknyeon","city":"부산","source_url":null},{"id":"1ed78e62-e494-41da-ab8f-3527391a45f3","name":"내호냉면","address":"부산 남구 우암번영로26번길 17(우암동)","lat":35.1264951,"lng":129.0708567,"layer_type":"baeknyeon","city":"부산","source_url":"https://smartstore.naver.com/naehonaengmyeon1919"},{"id":"c9a8a1bf-13cf-4746-b79c-ad07f5f1e488","name":"다다우동","address":"부산 남구 유엔평화로 7-1(대연동, 1층일부)","lat":35.1342049,"lng":129.0922217,"layer_type":"baeknyeon","city":"부산","source_url":null},{"id":"1e8e1898-3ecc-4b9c-9ed0-0896af6d3b9d","name":"아구본가 첨벙 신사본점","address":"서울 강남구 강남대로 150길 12(논현동, 대원빌딩 102호)","lat":37.5158672,"lng":127.0208588,"layer_type":"baeknyeon","city":"서울","source_url":null},{"id":"b10fb1dd-4869-4cae-b721-0e33921025a1","name":"삼호복집","address":"서울 서초구 강남대로 51길 5(서초동)","lat":37.4911964,"lng":127.02983,"layer_type":"baeknyeon","city":"서울","source_url":"https://app.catchtable.co.kr/ct/shop/samhobokzip?from=share"},{"id":"1e091c27-40ef-4574-b174-f6b42ff5e6d1","name":"베이커리카페 뱅센숲","address":"서울 은평구 갈현로 15, 1층 코너(신사동)","lat":37.5992229,"lng":126.91006,"layer_type":"baeknyeon","city":"서울","source_url":null},{"id":"09960a8a-eaa5-4372-982d-8bd70fe57fb8","name":"진주회관","address":"서울 중구 세종대로 11길 26(서소문동)","lat":37.5623209,"lng":126.974513,"layer_type":"baeknyeon","city":"서울","source_url":null},{"id":"88b35b6f-f168-48f3-970e-0d060b8ec37c","name":"신한양 식당","address":"서울 중구 청파로 453, 1층(중림동)","lat":37.559809,"lng":126.9678472,"layer_type":"baeknyeon","city":"서울","source_url":"http://www.instagram.com/sin.hanyang"},{"id":"6c032a60-a993-418f-bae4-40240b3bda6d","name":"부암갈비","address":"인천 남동구 용천로 149, 1층(간석동)","lat":37.4629805,"lng":126.7143289,"layer_type":"baeknyeon","city":"인천","source_url":"https://www.buam.co.kr"},{"id":"03ce8b86-da99-466f-bc99-310ff67bace4","name":"신흥부대고기","address":"인천 중구 서해대로449번길 10(신흥동2가)","lat":37.4665196,"lng":126.6340066,"layer_type":"baeknyeon","city":"인천","source_url":"https://blog.naver.com/i1007d"},{"id":"eaf646a9-fe8e-4a4a-affc-bda598630c23","name":"버텀라인","address":"인천 중구 신포로23번길 23(중앙동4가)","lat":37.4715909,"lng":126.6235651,"layer_type":"baeknyeon","city":"인천","source_url":"https://www.instagram.com/jazzclubbottomline"},{"id":"65f2d57e-cdfc-49ae-b028-f5ab71e5bfee","name":"금산원조 김정이삼계탕","address":"충남 금산군 금산읍 인삼약초로 33","lat":36.1009649,"lng":127.4968269,"layer_type":"baeknyeon","city":"충남","source_url":"https://blog.naver.com/sgmins"},{"id":"8cc31f74-5633-4222-8631-651708d5170b","name":"달동네마늘순대","address":"충북 단양군 단양읍 수변로 73","lat":36.9820645,"lng":128.3705242,"layer_type":"baeknyeon","city":"충북","source_url":null},{"id":"fa265f7b-63d8-420f-957d-58007f9d23ad","name":"명동왕족","address":"충북 제천시 명륜로6길 9(청전동)","lat":37.1427571,"lng":128.2043375,"layer_type":"baeknyeon","city":"충북","source_url":null},{"id":"8866ad21-c57d-437c-be26-058e76afd4bb","name":"청송통닭","address":"충북 청주시 상당구 남사로 116(남문로2가)","lat":36.6318583,"lng":127.4879389,"layer_type":"baeknyeon","city":"충북","source_url":null},{"id":"3b244e90-03a6-4faf-bd9a-6cadc2f022e6","name":"금강설렁탕","address":"충북 청주시 상당구 상당로5번길 35(석교동)","lat":36.6286068,"lng":127.4891945,"layer_type":"baeknyeon","city":"충북","source_url":null},{"id":"30326999-3006-42f8-98b0-a5a0c90deb2c","name":"들림횟집","address":"충북 충주시 살미면 팔봉향산길 374","lat":36.9233484,"lng":127.9229196,"layer_type":"baeknyeon","city":"충북","source_url":null},{"id":"2c948e9c-d115-4c5a-a351-d2e16e3ac996","name":"옥산장돌과이야기","address":"강원 정선군 여량면 여량3길 79","lat":37.4731182,"lng":128.726316,"layer_type":"baeknyeon","city":"강원","source_url":"http://www.옥산장.kr"},{"id":"95158e47-8d3a-41e4-831f-34088492258e","name":"벼슬구지뼈다귀감자탕","address":"경기 시흥시 연성로29번길 14-1(하중동, 1층)","lat":37.3919369,"lng":126.8063509,"layer_type":"baeknyeon","city":"경기","source_url":"https://smartstore.naver.com/byeoseulguji"},{"id":"92027fb9-f41c-488b-8adf-9e003428e411","name":"남한강 송어횟집","address":"경기 여주시 세종대왕면 능서로 714","lat":37.4391672,"lng":127.536446,"layer_type":"baeknyeon","city":"경기","source_url":"https://www.ok114.co.kr/ntnw/search/searchCompanyOfMainPh.crz?phone_number=0317728062"},{"id":"ddb55433-b39a-46b5-922d-42930cbeaccf","name":"경원식당","address":"경기 의정부시 둔야로 49번길 21(의정부동)","lat":37.7402936,"lng":127.0382495,"layer_type":"baeknyeon","city":"경기","source_url":null},{"id":"6d0776c4-3ba0-4cf6-9c19-04e022dddfb4","name":"고산떡갈비","address":"경기 의정부시 평화로 562번길 13(의정부동)","lat":37.7502251,"lng":127.0716199,"layer_type":"baeknyeon","city":"경기","source_url":null},{"id":"e3bb649c-4355-49ba-905e-e457bec298ec","name":"대로식당","address":"경기 화성시 병점중앙로 170번길 12-7(진안동, 쌍둥이빌딩A동 1층 대로식당)","lat":37.2137095,"lng":127.0382704,"layer_type":"baeknyeon","city":"경기","source_url":null},{"id":"e8ed1c36-2d18-4db4-b93f-7bd835f63833","name":"석정","address":"경기 화성시 풀무골로 77번길 20-9(중동)","lat":37.0112175,"lng":127.2578855,"layer_type":"baeknyeon","city":"경기","source_url":"https://www.instagram.com/matwang_anseong?igsh=d2owdGoxczMzYzVy&utm_source=qr"},{"id":"bd09fe91-3425-4ae0-bc42-6a413e74efff","name":"일미복요리전문점","address":"경남 김해시 김해대로2511번길 4(삼정동)","lat":35.228588,"lng":128.901694,"layer_type":"baeknyeon","city":"경남","source_url":null},{"id":"a6de2a55-213c-4560-8b30-7e0d3073e01d","name":"향촌식육식당","address":"경남 밀양시 내일상가1길 12(내일동)","lat":35.090438,"lng":128.1872988,"layer_type":"baeknyeon","city":"경남","source_url":null},{"id":"4c7c87fe-5581-4147-b34c-bd603aa4d784","name":"미화횟집","address":"경남 창녕군 남지읍 남지중앙로 131","lat":35.3931257,"lng":128.4835255,"layer_type":"baeknyeon","city":"경남","source_url":null},{"id":"4c61de3c-77ba-4a57-ac08-7d6991636a9e","name":"삼도왕족발보쌈","address":"경남 창원시 진해구 중원동로 84(충무동)","lat":35.152104,"lng":128.6620254,"layer_type":"baeknyeon","city":"경남","source_url":null},{"id":"f77386f2-f1a7-42c1-a8cb-57c8417d5d48","name":"거북당꿀빵","address":"경남 통영시 통영해안로 368, 101호(동호동, 남현빌딩)","lat":34.844138,"lng":128.427561,"layer_type":"baeknyeon","city":"경남","source_url":"http://www.geobuk.co.kr"},{"id":"85a937b0-781c-40e2-be83-f36faef03432","name":"한려갈비","address":"경남 통영시 해방다리1길 11-5(서호동)","lat":34.8418213,"lng":128.4178714,"layer_type":"baeknyeon","city":"경남","source_url":null},{"id":"1951f34d-9d98-42d4-bb7b-0113fda1f4f9","name":"한산섬식당","address":"경남 통영시 정동4길 58(정량동, 1층)","lat":34.8432012,"lng":128.4312353,"layer_type":"baeknyeon","city":"경남","source_url":null},{"id":"60c3c697-9615-4f2a-a7ed-c22d2aa6fd5c","name":"까치구멍집","address":"경북 안동시 석주로 203(상아동)","lat":36.5777803,"lng":128.7581036,"layer_type":"baeknyeon","city":"경북","source_url":null},{"id":"4296e949-eb95-4a55-9b8d-acf881daaf84","name":"옥류관면옥","address":"경북 안동시 문화광장길 40-11(삼산동)","lat":36.5650379,"lng":128.7315579,"layer_type":"baeknyeon","city":"경북","source_url":null},{"id":"28194346-dbfd-4169-a911-0e664d8f9287","name":"동양순대","address":"경북 영주시 중앙로83번길 33(영주동)","lat":36.823847,"lng":128.6233042,"layer_type":"baeknyeon","city":"경북","source_url":null},{"id":"00409034-e751-4f6d-8975-3edb78fb8249","name":"보름베이커리","address":"전라북도 익산시 인북로 202, 1층(남중동)","lat":35.9466404,"lng":126.9565243,"layer_type":"baeknyeon","city":"전북","source_url":null},{"id":"c3aecd2e-39d6-4eb3-9cb8-be6c372fb4bd","name":"구드래돌쌈밥","address":"충남 부여군 부여읍 나루터로 31","lat":36.2853317,"lng":126.909627,"layer_type":"baeknyeon","city":"충남","source_url":null},{"id":"54c9f0c6-370d-43f3-a27a-0004f24c5b13","name":"구두래황토정","address":"충남 부여군 규암면 백제문로 30","lat":36.2788143,"lng":126.8858528,"layer_type":"baeknyeon","city":"충남","source_url":"https://www.instagram.com/hwangtojeong_official"},{"id":"12a3c6e3-2099-4e47-b362-7a92a73bc763","name":"새재황토방","address":"충북 괴산군 연풍면 새재로 1833","lat":36.8138134,"lng":128.039572,"layer_type":"baeknyeon","city":"충북","source_url":null},{"id":"06d3b1f7-be54-4ee5-82a5-7ffee28f4d18","name":"남한강횟집","address":"충북 충주시 동량면 호반로 7","lat":37.0301766,"lng":127.9730362,"layer_type":"baeknyeon","city":"충북","source_url":null},{"id":"22352fbc-6244-4148-b413-7acb17ebd951","name":"양구재래식손두부","address":"강원 양구군 양구읍 학안로 6","lat":38.0616759,"lng":127.9827089,"layer_type":"baeknyeon","city":"강원","source_url":"https://smartstore.naver.com/ygfb"},{"id":"2fb00ef6-6a27-44be-aa5b-f5b0763bae32","name":"동강다슬기","address":"강원 영월군 영월읍 영월로 2105","lat":37.1826983,"lng":128.4803661,"layer_type":"baeknyeon","city":"강원","source_url":null},{"id":"0b0c2c8d-af7f-490e-80e9-2173b8c7808e","name":"정선면옥","address":"강원 정선군 정선읍 봉양5길 35","lat":37.3803796,"lng":128.6623918,"layer_type":"baeknyeon","city":"강원","source_url":null},{"id":"52939444-eccf-4a9f-b949-4abbdbf6b360","name":"실비막국수","address":"강원 춘천시 소양고개길 25(소양로2가)","lat":37.8836289,"lng":127.7258451,"layer_type":"baeknyeon","city":"강원","source_url":"https://youtube.com/@실비막국수"},{"id":"e634cda1-e7c7-4ea9-98e3-388fc06b4a50","name":"봉평메밀미가연","address":"강원 평창군 봉평면 기풍로 108","lat":37.6120487,"lng":128.3782875,"layer_type":"baeknyeon","city":"강원","source_url":"https://blog.naver.com/dddoing8805"},{"id":"1f830560-6fe4-4572-8e69-3401b0cf88df","name":"메밀방아용둔막국수","address":"강원 횡성군 우천면 경강로 2883","lat":37.4879178,"lng":128.0720384,"layer_type":"baeknyeon","city":"강원","source_url":null},{"id":"ea35090e-678c-4985-a129-6e5be695db64","name":"박현자네 더덕밥","address":"강원 횡성군 횡성읍 횡성로 59","lat":37.4602483,"lng":127.9746114,"layer_type":"baeknyeon","city":"강원","source_url":null},{"id":"2c8062f2-1f20-4a32-86e7-adda52f3f7c3","name":"함밭식당","address":"강원 횡성군 횡성읍 섬강로 88(206-3)","lat":37.4990634,"lng":127.9891843,"layer_type":"baeknyeon","city":"강원","source_url":null},{"id":"385b2937-dc93-400e-8364-b12aadab0d2b","name":"수양농장가든","address":"경기 광주시 곤지암읍 경충대로 295번길 110-3","lat":37.3264838,"lng":127.3683448,"layer_type":"baeknyeon","city":"경기","source_url":"https://www.youtube.com/@blackgoatfarm"},{"id":"f3798f0f-b4fc-47cb-a4de-9fcdde7c387e","name":"나룻터숯불장어구이","address":"경기 김포시 월곶면 김포대로3023번길 96","lat":37.7312351,"lng":126.5260192,"layer_type":"baeknyeon","city":"경기","source_url":null},{"id":"2de6ff83-8ff6-46e6-b136-1d50c0a62318","name":"수빈관","address":"경기 김포시 통진읍 김포대로 2374","lat":37.6972532,"lng":126.5855602,"layer_type":"baeknyeon","city":"경기","source_url":null},{"id":"61ad5b2c-1efa-4e49-88c0-e0a02caa76f4","name":"진미옥설농탕","address":"경기 동두천시 생연로 185-1(생연동)","lat":37.9090263,"lng":127.0528967,"layer_type":"baeknyeon","city":"경기","source_url":null},{"id":"3504979e-e991-4c38-a83b-b9d49b50d35d","name":"텍사스바베큐","address":"경기 동두천시 중앙로 366(생연동)","lat":37.638127,"lng":126.8390271,"layer_type":"baeknyeon","city":"경기","source_url":"https://smartstore.naver.com/texcamp_kr"},{"id":"c8395399-31d7-4f85-b97d-a9ce6f2a4715","name":"복사골뼈다귀해장국","address":"충남 청양군 남양면 만수로 1582","lat":36.3979221,"lng":126.7761306,"layer_type":"baeknyeon","city":"충남","source_url":"https://www.facebook.com/boksagol1999"},{"id":"574c12f1-5dda-4884-bbf1-26252862cec7","name":"진성삼계탕","address":"경기 성남시 수정구 산성대로255번길 8-5(신흥동)","lat":37.4409884,"lng":127.1453546,"layer_type":"baeknyeon","city":"경기","source_url":"http://town.olleh.com/031-734-8092"},{"id":"56da7924-a275-4abf-9e3e-a5406c8fa8f4","name":"참맛나리아","address":"경기 성남시 수정구 시민로142번길 12-2(신흥동)","lat":37.4412513,"lng":127.145217,"layer_type":"baeknyeon","city":"경기","source_url":"http://www.odr.kr/m0mk9j"},{"id":"07159f5a-34d6-47ab-b447-efed6c03864e","name":"연포갈비","address":"경기 수원시 팔달구 정조로906번길 56-5(북수동)","lat":37.2874752,"lng":127.0169709,"layer_type":"baeknyeon","city":"경기","source_url":"https://www.instagram.com/yeonpogalbi/"},{"id":"a3074504-28eb-473a-a0fc-2fcc951b104b","name":"입주집","address":"경기 수원시 팔달구 팔달문로3번길 37(팔달로1가)","lat":37.2792819,"lng":127.0176384,"layer_type":"baeknyeon","city":"경기","source_url":"http://facebook.com/ibjujib/"},{"id":"e34dfcf6-4ca8-4d06-b89a-97644c81a7d4","name":"호남순대","address":"경기 수원시 팔달구 팔달문로 19(지동, A동 5호)","lat":37.2778167,"lng":127.0196115,"layer_type":"baeknyeon","city":"경기","source_url":"https://www.facebook.com/sundaejijon/"},{"id":"d0a5f3cf-1fe4-497d-a352-0f147c8e6c71","name":"흙과사람들","address":"경기 시흥시 비둘기공원로 21(대야동 201,202,203)","lat":37.4439737,"lng":126.7919882,"layer_type":"baeknyeon","city":"경기","source_url":"https://blog.naver.com/soil_and_people"},{"id":"2b72ddca-b14e-43a6-b813-b39f634afafc","name":"솔로몬베이커리카페","address":"경기 안산시 단원구 선이로 14, 1120호, 1121호(선부동, 제일종합시장)","lat":37.3426329,"lng":126.80338,"layer_type":"baeknyeon","city":"경기","source_url":"https://solomoncafe.creatorlink.net/"},{"id":"96be5a71-067d-4558-b7de-e6c74ff6fb53","name":"모박사","address":"경기 안성시 대덕면 서동대로 4653","lat":37.3521485,"lng":126.7207524,"layer_type":"baeknyeon","city":"경기","source_url":null},{"id":"3362a4c0-dce6-4475-8e66-250c26e76236","name":"산하식당","address":"경기 양주시 백석읍 기산로 410","lat":37.7761179,"lng":126.9358294,"layer_type":"baeknyeon","city":"경기","source_url":null},{"id":"4074cd4e-d0a3-474f-bc59-825eb0cbeb28","name":"일미만두1981의정부","address":"경기 의정부시 평화로 311, 1층전체(호원동)","lat":37.7197424,"lng":127.0471613,"layer_type":"baeknyeon","city":"경기","source_url":"https://smartstore.naver.com/ilmimandoo"},{"id":"04e22409-3ccf-400a-9a3c-7d384992d4a6","name":"김성래피자","address":"경기도 이천시 부발읍 경충대로2041번길 52, 1층","lat":37.2464747,"lng":127.4892432,"layer_type":"baeknyeon","city":"경기","source_url":"http://www.kimsungraepizza.com/"},{"id":"42aacff4-fdaf-46ab-b088-75ff966695fa","name":"대창통닭","address":"경기 평택시 자유로3번길 23(평택동)","lat":36.9931809,"lng":127.089534,"layer_type":"baeknyeon","city":"경기","source_url":"https://instagram.com/daechang_pyeongtaek"},{"id":"52217cbc-747a-4cec-84ad-f1e9a1965232","name":"나래궁","address":"경기 화성시 반정로 151(반정동)","lat":37.2341518,"lng":127.0392937,"layer_type":"baeknyeon","city":"경기","source_url":null},{"id":"bf001e5f-18c8-4d8d-a7c8-6d882d03df97","name":"대지식당","address":"경기 화성시 팔탄면 서촌길21번길 8","lat":37.1618007,"lng":126.9031973,"layer_type":"baeknyeon","city":"경기","source_url":null},{"id":"3d22f4e6-5047-4621-a75c-8fbf5497bfc4","name":"마라도일식","address":"충북 진천군 광혜원면 구암길 30, 1층","lat":36.9908014,"lng":127.4331734,"layer_type":"baeknyeon","city":"충북","source_url":"https://www.instagram.com/marado_official"},{"id":"b3e8e9f9-cda1-4682-b684-9dd0c6e14492","name":"질고개쌈밥","address":"충북 제천시 용두대로 31길 55(신월동)","lat":37.157019,"lng":128.175451,"layer_type":"baeknyeon","city":"충북","source_url":null},{"id":"bcf21e43-6092-430a-881b-299e2f726ea3","name":"갈마가든","address":"충북 충주시 살미면 용천리 246","lat":36.8892902,"lng":127.9837337,"layer_type":"baeknyeon","city":"충북","source_url":null},{"id":"f23cb44f-e67e-46e6-8b57-7399aa9382cd","name":"봉서식당","address":"충북 충주시 산척면 월현길 20","lat":37.0780235,"lng":127.9569204,"layer_type":"baeknyeon","city":"충북","source_url":null},{"id":"2e80653d-741b-4b68-90b6-5e802498ee54","name":"가포옛날영도집","address":"경남 창원시 마산합포구 가포해안길 37(가포동)","lat":35.1691687,"lng":128.5728154,"layer_type":"baeknyeon","city":"경남","source_url":null},{"id":"a16993d4-4c50-4b94-9840-4ae09fbea8ec","name":"갯바위","address":"경기 군포시 산본로323번길 16-7, 113호(산본동, 롯데프라자)","lat":37.3592141,"lng":126.9316327,"layer_type":"baeknyeon","city":"경기","source_url":null},{"id":"7e8a358c-ea4e-43e8-8c47-7cb8e5af8087","name":"경화춘","address":"경남 김해시 분성로335번길 8-1(동상동)","lat":35.2344534,"lng":128.8828599,"layer_type":"baeknyeon","city":"경남","source_url":null},{"id":"569adedc-4934-44f9-ab22-b6fd59c5f013","name":"군포식당","address":"경기 군포시 군포로 556번길 6, 1,2층(당동)","lat":37.3555257,"lng":126.9472865,"layer_type":"baeknyeon","city":"경기","source_url":null},{"id":"1686ea3d-e191-4bcc-bd35-f27ccd778f50","name":"금양정","address":"전북 전주시 완산구 어은로 30(중화산동2가)","lat":35.8169275,"lng":127.1263834,"layer_type":"baeknyeon","city":"전북","source_url":null},{"id":"1b9aab50-6a8e-49f1-bdd2-b517e3731c86","name":"대우족발","address":"대구 북구 중앙대로 509-1(칠성동2가)","lat":35.8785423,"lng":128.5949994,"layer_type":"baeknyeon","city":"대구","source_url":null},{"id":"1c6dcdbc-fa49-47d8-bca0-d692ab5c4285","name":"동궁염소탕","address":"강원 강릉시 강릉대로419번길 17(포남동)","lat":37.7724667,"lng":128.908713,"layer_type":"baeknyeon","city":"강원","source_url":null},{"id":"e6394e23-ec71-4832-aa13-a40d4eba0d5b","name":"동봉","address":"대구 동구 팔공로 995, 1층(백안동)","lat":35.9550317,"lng":128.6873736,"layer_type":"baeknyeon","city":"대구","source_url":null},{"id":"b5b97a0d-4f38-4187-93de-d9535b0617e4","name":"마라도회식당","address":"경북 포항시 북구 해안로 217-1(두호동)","lat":36.0647271,"lng":129.3872251,"layer_type":"baeknyeon","city":"경북","source_url":"https://smartstore.naver.com/marado_food"},{"id":"e59865bd-1ee6-4467-9e9a-b3f04cd18485","name":"마포나루(1호점)","address":"서울 마포구 마포대로 68(도화동, 마포아크로타워 B01호, B02호)","lat":37.5412641,"lng":126.9489088,"layer_type":"baeknyeon","city":"서울","source_url":"http://www.maponaru.com"},{"id":"6af10058-c3da-4b21-a4a3-8d7e1b3ba14f","name":"맥아당","address":"충북 청주시 서원구 사운로 88(사직동)","lat":36.636957,"lng":127.4793625,"layer_type":"baeknyeon","city":"충북","source_url":null},{"id":"4b9b0e0d-a65e-4e96-adc7-dd8d8f426b3e","name":"봉우맛집","address":"충북 충주시 봉현로 80(봉방동)","lat":36.9754999,"lng":127.9159049,"layer_type":"baeknyeon","city":"충북","source_url":"http://www.봉우맛집.kr"},{"id":"7f8d8142-714f-4f87-878e-c47a3af8035c","name":"산중식당","address":"대구 동구 팔공산로185길 55(용수동)","lat":35.9902006,"lng":128.6945881,"layer_type":"baeknyeon","city":"대구","source_url":"https://catchtable.co.kr/sanjungsigdang_palgongsan"},{"id":"71cb55f5-0af9-4b29-812b-5cf338fa473a","name":"송도갈매기주식회사","address":"인천 연수구 능허대로151번길 25(옥련동, 지하1층,2층전부)","lat":37.4217126,"lng":126.6469542,"layer_type":"baeknyeon","city":"인천","source_url":"https://smartstore.naver.com/sgfnb"},{"id":"bba969b9-cd72-4b27-a358-14b9b0e645a2","name":"쉐프부랑제","address":"경기 김포시 모담공원로 155, 1층전체, 2층일부(운양동)","lat":37.6490182,"lng":126.6953245,"layer_type":"baeknyeon","city":"경기","source_url":"https://www.instagram.com/chefboulange"},{"id":"c128d89a-1bac-410b-b86f-6baa875a12c1","name":"신락원","address":"서울 동대문구 전농로20길 2 1층(전농동)","lat":37.5789172,"lng":127.0571407,"layer_type":"baeknyeon","city":"서울","source_url":null},{"id":"77f7aaff-e714-4cae-b120-af3b2e83f6c1","name":"심순녀안흥찐빵","address":"강원 횡성군 안흥면 서동로 1029","lat":37.4079556,"lng":128.1461756,"layer_type":"baeknyeon","city":"강원","source_url":"http://www.anhungjjbb.com/"},{"id":"413e5973-5531-4d43-992c-d7903ea35ba3","name":"약콩밀면","address":"부산 남구 동명로145번길 80(용호동)","lat":35.1231036,"lng":129.1133246,"layer_type":"baeknyeon","city":"부산","source_url":"https://blog.naver.com/raonex/222736856952"},{"id":"40f0c617-a96a-4186-905c-2f7b461f86b5","name":"양지말화로구이","address":"강원 홍천군 홍천읍 양지말길 17-4","lat":37.6595828,"lng":127.8313109,"layer_type":"baeknyeon","city":"강원","source_url":"http://www.yangjimal.com"},{"id":"9229252a-788b-4984-968d-138892838159","name":"영광굴비","address":"전남 영광군 영광읍 중앙로2길 65","lat":35.3591464,"lng":126.4455821,"layer_type":"baeknyeon","city":"전남","source_url":null},{"id":"e5192d7d-2304-48ec-b60f-adbea981d897","name":"온천골","address":"경북 경산시 계양로 175(계양동)","lat":35.8312758,"lng":128.7488883,"layer_type":"baeknyeon","city":"경북","source_url":"http://온천골.kr/"},{"id":"8685ff4f-876e-4c4a-9b3a-a4c580e46543","name":"운채","address":"강원 원주시 고문골길 47(행구동)","lat":38.2043602,"lng":128.5530981,"layer_type":"baeknyeon","city":"강원","source_url":null},{"id":"f9abaf49-1774-4efb-9c6a-0b2253e4c4e2","name":"삼대 인천게장","address":"인천 동구 금곡로81번길 22 (송림동)","lat":37.4741845,"lng":126.6449026,"layer_type":"baeknyeon","city":"인천","source_url":null},{"id":"4d795c3b-ea96-4d93-b2be-77b578a858ab","name":"일월정 토속한정식","address":"대구 달성군 논공읍 논공로 697-5","lat":35.7305733,"lng":128.4516369,"layer_type":"baeknyeon","city":"대구","source_url":"https://www.instagram.com/iwj2005"},{"id":"c5b86b26-7d30-4e58-bc4a-851718837b4f","name":"㈜한일관","address":"서울 강남구 압구정로 38길 14(신사동)","lat":37.5669928,"lng":126.9842077,"layer_type":"baeknyeon","city":"서울","source_url":"http://www.hanilkwan.co.kr/"},{"id":"6048be91-dbca-4798-81b6-18a96b0f35ca","name":"지리산식당","address":"전남 구례군 마산면 화엄사로 381, 1층","lat":35.208872,"lng":127.4636317,"layer_type":"baeknyeon","city":"전남","source_url":"https://www.instagram.com/choi_myung_hyun1"},{"id":"472ce9d2-38be-4bda-9148-23d7e2b5267f","name":"청주왕족발,보쌈","address":"충북 진천군 진천읍 중앙서로 21","lat":36.8577875,"lng":127.4422298,"layer_type":"baeknyeon","city":"충북","source_url":null},{"id":"0f1d6e34-33be-414a-9eba-23f396e909eb","name":"칡산에","address":"강원 원주시 금불4길 25-5(단계동)","lat":37.349062,"lng":127.9325089,"layer_type":"baeknyeon","city":"강원","source_url":"https://chiksan.wywh.co.kr"},{"id":"db5682f6-0366-4c07-8000-e22a0367e848","name":"통만두집","address":"전남 여수시 통제영4길 12(중앙동, 주내과의원)","lat":34.7411164,"lng":127.7352507,"layer_type":"baeknyeon","city":"전남","source_url":"http://tongmandu.cityfood.co.kr/"},{"id":"a0335d7d-4f16-49d7-8fb1-f5dbd0c365ef","name":"편대장영화식당","address":"경북 영천시 강변로 50-15(금노동)","lat":35.9604312,"lng":128.928059,"layer_type":"baeknyeon","city":"경북","source_url":null},{"id":"82b998e5-6fcf-4ad6-82cf-037ddce62646","name":"포항할매집","address":"경북 영천시 시장4길 52, 제 2지구(완산동)","lat":35.9642216,"lng":128.9375153,"layer_type":"baeknyeon","city":"경북","source_url":null},{"id":"72e046cb-cd7c-406a-8dc3-fadc01015c0e","name":"한려곰장어","address":"경남 통영시 정동4길 57 (정량동)","lat":34.8430833,"lng":128.4314482,"layer_type":"baeknyeon","city":"경남","source_url":"http://pf.kakao.com/_ZZtyj"},{"id":"fa8e3d3d-649b-4a23-b3c2-f2324b937817","name":"호원당","address":"서울 강남구 압구정로 34길 26(신사동)","lat":37.5264249,"lng":127.0305931,"layer_type":"baeknyeon","city":"서울","source_url":"http://www.howondang.co.kr"},{"id":"f26d77f3-33df-48a7-bb7a-7b3328a82f5b","name":"홍두깨국시집","address":"경기 포천시 정문동길 24(어룡동)","lat":37.886714,"lng":127.1886952,"layer_type":"baeknyeon","city":"경기","source_url":null},{"id":"d1e722d2-dfa2-4618-b923-b045914cf4b9","name":"희망통닭","address":"부산 동래구 명륜로98번길 94(낙민동)","lat":35.2015406,"lng":129.0884185,"layer_type":"baeknyeon","city":"부산","source_url":null},{"id":"7e2bf56b-484a-4697-a3a4-45ab0ef5ff2f","name":"봄담은산채","address":"강원 춘천시 선들길 38(삼천동)","lat":37.8654664,"lng":127.7058351,"layer_type":"baeknyeon","city":"강원","source_url":null},{"id":"0b2a38ee-4f17-415a-bff7-fc431ef28c95","name":"대원당","address":"강원특별자치도 춘천시 퇴계로 191, 1, 2층(석사동)","lat":37.857382,"lng":127.7400846,"layer_type":"baeknyeon","city":"강원","source_url":"https://smartstore.naver.com/daewondang"},{"id":"ce617e8e-9b35-4c9e-8f0f-5fb8a429e383","name":"영동횟집","address":"강원 강릉시 창해로 350번길 37(강문동)","lat":37.79655,"lng":128.916643,"layer_type":"baeknyeon","city":"강원","source_url":"https://toss.place/_p/jrHm3Aoos"},{"id":"f7848ffd-825f-43ec-8e26-f458bd4f11c1","name":"부곡통닭집","address":"경기 의왕시 부곡시장길 17(삼동) 1층","lat":37.3212362,"lng":126.9508349,"layer_type":"baeknyeon","city":"경기","source_url":null},{"id":"70f216e6-92a9-47b0-ae25-87713254e3d6","name":"여명본점","address":"경기 화성시 정남면 세자로303번길 11-8","lat":37.1931094,"lng":126.9785008,"layer_type":"baeknyeon","city":"경기","source_url":null},{"id":"d0fb65ac-ac36-4fd8-ac7d-9be3215b1722","name":"동전집","address":"경남 창원시 진해구 충장로 88(충무동)","lat":35.1522713,"lng":128.6616694,"layer_type":"baeknyeon","city":"경남","source_url":null},{"id":"14760474-1d0d-47ac-b9fd-84895a8cd44a","name":"미래특수통닭","address":"경남 사천시 팔포3길 3(서금동)","lat":34.9264445,"lng":128.0749387,"layer_type":"baeknyeon","city":"경남","source_url":"https://blog.naver.com/dla8687"},{"id":"39e00720-2a1f-43ec-b6e9-cee2be2dd941","name":"향토집","address":"경남 통영시 무전5길 37-41(무전동)","lat":34.86087,"lng":128.4256825,"layer_type":"baeknyeon","city":"경남","source_url":null},{"id":"ef227585-a275-4e2d-852f-a40cdc7ff086","name":"문경정 짱뚱어탕 전문점","address":"광주광역시 서구 화정로309번길 26-2(농성동)","lat":35.1521845,"lng":126.8879248,"layer_type":"baeknyeon","city":"광주","source_url":null},{"id":"3ecd0155-3aff-4d1d-b553-9811b0f28124","name":"주몽가든맛집","address":"전남 나주시 왕곡면 예향로 3683","lat":34.9862559,"lng":126.7037735,"layer_type":"baeknyeon","city":"전남","source_url":"https://www.instagram.com/"},{"id":"7fcfb7c3-caab-4677-a883-d87183c42768","name":"큰나무집 궁중약백숙","address":"대구 달성군 가창면 우록길 24(외2필지)","lat":35.7336371,"lng":128.6595616,"layer_type":"baeknyeon","city":"대구","source_url":"https://www.instagram.com/bigtreehouse_official/"},{"id":"47cd0077-67ec-437f-a266-7b5e87232c5e","name":"경상도추어탕","address":"경북 안동시 태사길 23-3(북문동)","lat":36.5865479,"lng":128.6982391,"layer_type":"baeknyeon","city":"경북","source_url":"http://chudaegamnamwonchueotangandongjeom.cityfood.co.kr/"},{"id":"b66111aa-5e77-45f8-a3f7-85a2bc044687","name":"금오산고향촌식당","address":"경북 구미시 금오산상가길 35-11(남통동)","lat":36.1112926,"lng":128.3149852,"layer_type":"baeknyeon","city":"경북","source_url":null},{"id":"66d9e084-b871-4012-96fc-98b4de765089","name":"효령매운탕","address":"대구 군위군 효령면 치산효령로 2267-8","lat":36.150371,"lng":128.5948565,"layer_type":"baeknyeon","city":"대구","source_url":"https://www.instagram.com/hyoryeong.official"},{"id":"a75a48c2-8c55-4efa-a551-447c58a0002c","name":"고령금산한우","address":"경북 고령군 성산면 성산로 946-5","lat":35.7503472,"lng":128.3651169,"layer_type":"baeknyeon","city":"경북","source_url":"https://www.instagram.com/geumsan1995"},{"id":"06585156-473b-4309-a6c5-e3dbd905d3d0","name":"소백산생고기식당","address":"경북 영주시 대학로 16(휴천동)","lat":36.8101931,"lng":128.6224285,"layer_type":"baeknyeon","city":"경북","source_url":"http://instagram.com/sobaekhanwoo"},{"id":"28981189-3cae-4be7-88b2-a078f8317ff8","name":"은용골농장가든","address":"세종 장군면 은용2길 71","lat":36.4835589,"lng":127.1973668,"layer_type":"baeknyeon","city":"세종","source_url":null},{"id":"c074c763-10c0-4d48-8657-970e243ca4c6","name":"부강옥 세종부강본점","address":"세종 부강면 부강외천로 103","lat":36.527453,"lng":127.3789276,"layer_type":"baeknyeon","city":"세종","source_url":"https://blog.naver.com/vdokkaebi"},{"id":"67ffb238-c861-424a-8093-f92bdcb38dc2","name":"태화육개장","address":"부산 부산진구 서면문화로 18(부전동, 1층)","lat":35.1592107,"lng":129.0569576,"layer_type":"baeknyeon","city":"부산","source_url":null},{"id":"8a962331-0b37-4d28-89eb-b9b4ad6a60e5","name":"평양옥","address":"서울 서대문구 통일로 107-23(미근동)","lat":37.5642723,"lng":126.9669769,"layer_type":"baeknyeon","city":"서울","source_url":"https://www.instagram.com/pyeong_yang_ok"},{"id":"91a9f454-ea4e-4789-924e-4b969f0cbd19","name":"포도나무","address":"서울 종로구 사직로 108-1, 1층(내자동)","lat":37.5758311,"lng":126.9708132,"layer_type":"baeknyeon","city":"서울","source_url":"http://facebook.com/podonamu1995"},{"id":"069b1601-1da3-44aa-be4d-11831ae81fa0","name":"뚱뚱이할머니집","address":"서울 중구 장충단로 174-1(장충동1가)","lat":37.5604158,"lng":127.005961,"layer_type":"baeknyeon","city":"서울","source_url":"https://blog.naver.com/kimsh00921"},{"id":"cfb23c44-7a63-44ee-8040-fc73cfdee8b6","name":"청수장","address":"서울 성북구 정릉로 237-2(정릉동, 1층)","lat":37.605465,"lng":127.0107375,"layer_type":"baeknyeon","city":"서울","source_url":"https://app.catchtable.co.kr/ct/shop/chungsoojang"},{"id":"77229226-f27b-4bdc-91d3-f5240ad19c54","name":"향호면옥","address":"서울 송파구 마천로 79(오금동, 장한빌딩)","lat":37.5074829,"lng":127.1292743,"layer_type":"baeknyeon","city":"서울","source_url":null},{"id":"c2e5fbf1-97ee-44b9-929e-b56436ea8208","name":"정자참가자미","address":"울산 남구 왕생로45번길 3(달동)","lat":35.5373479,"lng":129.3311694,"layer_type":"baeknyeon","city":"울산","source_url":null},{"id":"c0694070-a43d-480a-9974-14aea35fb17b","name":"반공방첩","address":"인천 동구 샛골로 128(송림동)","lat":37.4737029,"lng":126.6443824,"layer_type":"baeknyeon","city":"인천","source_url":null},{"id":"883e2e96-294d-44b2-ba2c-8fd611f203e6","name":"영흥관","address":"전북 전주시 완산구 현무1길 17(경원동 3가)","lat":35.8202796,"lng":127.1477596,"layer_type":"baeknyeon","city":"전북","source_url":null},{"id":"9630ce35-aa32-4b65-97ef-0f119097e44f","name":"신한양불고기","address":"전북 전주시 완산구 전주객사3길 11(중앙동 1가)","lat":35.8177633,"lng":127.1425438,"layer_type":"baeknyeon","city":"전북","source_url":null},{"id":"39bfd79a-5e3f-4af6-a90c-09d7129e7532","name":"만성한정식","address":"전북 전주시 완산구 바우배기1길 31-9 2층(효자동2가)","lat":35.815219,"lng":127.1050112,"layer_type":"baeknyeon","city":"전북","source_url":"https://blog.naver.com/chichi7474"},{"id":"67769426-382f-4158-945e-c25165599c1f","name":"교동다원","address":"전북 전주시 완산구 은행로 65-5(교동)","lat":35.814139,"lng":127.1530058,"layer_type":"baeknyeon","city":"전북","source_url":"https://www.instagram.com/gyodong_tea/"},{"id":"d8c64e87-b375-4b07-9406-30f0e27bfa73","name":"촌당","address":"울산 남구 수암로90번길 21(신정동)","lat":35.5400259,"lng":129.255833,"layer_type":"baeknyeon","city":"울산","source_url":"https://www.instagram.com/chondang_ulsan/profilecard/?igsh=MWV4cjFzeHk0d2Y5aQ=="},{"id":"5e1d3cd6-4ae4-45b1-934b-88f1df5ca78d","name":"단골식당","address":"인천 강화군 화도면 마니산로678","lat":37.6339943,"lng":126.4230443,"layer_type":"baeknyeon","city":"인천","source_url":"https://blog.naver.com/dangolfoody"},{"id":"f84a0d03-7494-45d8-9652-4d9253829654","name":"깜상네","address":"인천 동구 화도진로5번길 8(금곡동)","lat":37.4736026,"lng":126.6359589,"layer_type":"baeknyeon","city":"인천","source_url":null},{"id":"e8fc8877-8fb4-4102-a040-89362edf3b6a","name":"인현통닭삼계탕","address":"인천 중구 참외전로 134, 1층(인현동, 외 2필지)","lat":37.4744928,"lng":126.6317921,"layer_type":"baeknyeon","city":"인천","source_url":"https://smartstore.naver.com/since1972"},{"id":"f7467c35-a65b-4dd7-a4e9-e179dd077e77","name":"덕양 은혜 곱창","address":"전남 여수시 소라면 하세동길 7-1","lat":34.7980571,"lng":127.6315273,"layer_type":"baeknyeon","city":"전남","source_url":"http://yeosuga.com"},{"id":"4f23cc93-a93a-4a03-a7d7-354399011ca7","name":"인천장가든","address":"전북 고창군 아산면 원평길 9","lat":35.46256,"lng":126.6277361,"layer_type":"baeknyeon","city":"전북","source_url":null},{"id":"65ccc79d-3e84-4dc1-9932-12b4808629f2","name":"빈해원","address":"전북 군산시 동령길 57(장미동)","lat":35.9889339,"lng":126.7138796,"layer_type":"baeknyeon","city":"전북","source_url":null},{"id":"2c6a7fec-40c8-4d1d-b0cf-9ac096e4f5a1","name":"빵굽는오남매","address":"전북 군산시 오룡로 65-1, 1층, 2층(명산동)","lat":35.9830108,"lng":126.7102621,"layer_type":"baeknyeon","city":"전북","source_url":"https://onammae.imweb.me/"},{"id":"3b67fdec-bfd3-4a88-b355-a472929d776f","name":"인산인해","address":"전북 남원시 시청동로 26(도통동)","lat":35.4160277,"lng":127.3917082,"layer_type":"baeknyeon","city":"전북","source_url":null},{"id":"bdc4d3c7-d677-43e7-b7f2-b96c57904ad2","name":"쌍쌍식육식당","address":"경남 거창군 가조면 가조가야로 1096","lat":35.7101428,"lng":128.0147124,"layer_type":"baeknyeon","city":"경남","source_url":null},{"id":"1449eb4d-be18-4775-95ca-b5bd2d1d299b","name":"가야양념족발","address":"경남 김해시 분성로 54(외동)","lat":35.2317138,"lng":128.85315,"layer_type":"baeknyeon","city":"경남","source_url":"https://www.instagram.com/king_gayajokbal/"},{"id":"66529c00-f643-4d60-9123-2b3124245823","name":"시장횟집(무계동)","address":"경남 김해시 무계동 191-10","lat":35.2003723,"lng":128.8149548,"layer_type":"baeknyeon","city":"경남","source_url":null},{"id":"c1ed6559-d1db-481d-a88a-cb607bf656f1","name":"시장횟집(한림면)","address":"경남 김해시 한림면 한림로352번길 18","lat":35.32035,"lng":128.8030875,"layer_type":"baeknyeon","city":"경남","source_url":null},{"id":"ab2e6dc2-4907-4320-9689-a6f0e839eaab","name":"인혜돌곱창","address":"경남 창원시 마산합포구 교방천남길 320(오동동)","lat":35.209373,"lng":128.579185,"layer_type":"baeknyeon","city":"경남","source_url":null},{"id":"f014562d-ada9-4ede-933f-19454d4f818d","name":"덕합반점","address":"경남 사천시 사천읍 읍내1길 81","lat":35.0835286,"lng":128.0866209,"layer_type":"baeknyeon","city":"경남","source_url":null},{"id":"019cd245-28ae-46ef-afcc-255cb6f4d7b9","name":"임진각식당","address":"경남 창원시 의창구 팔용로 515(팔용동)","lat":35.2613145,"lng":128.6178913,"layer_type":"baeknyeon","city":"경남","source_url":"http://cw-imjingak.com"},{"id":"f90d2d88-f8f4-425a-bb81-5b1302f38384","name":"심가네해물짬뽕","address":"경남 통영시 새터길 74-4, 1층(서호동)","lat":34.8415466,"lng":128.4206371,"layer_type":"baeknyeon","city":"경남","source_url":"https://www.instagram.com/simgane_jjamppong?igsh=MWFlMjV4eGJzbGt0aQ=="},{"id":"4311b8c7-5533-41e3-bcdc-bb2ec16eea0a","name":"털보매운탕","address":"경북 경주시 안강읍 딱실길 14-6","lat":35.9880587,"lng":129.1540584,"layer_type":"baeknyeon","city":"경북","source_url":null},{"id":"9bb41fa0-fcc2-4060-a552-185d9562f907","name":"에버그린베이커리","address":"경북 고령군 대가야읍 중앙로 13-1","lat":35.729852,"lng":128.269457,"layer_type":"baeknyeon","city":"경북","source_url":null},{"id":"0d2d931e-d57d-4014-b83d-f54b671a2045","name":"예천가든","address":"경북 봉화군 봉성면 진의실길 4-1","lat":36.9127089,"lng":128.824643,"layer_type":"baeknyeon","city":"경북","source_url":null},{"id":"2fcdcdca-6c5a-45f7-a7c9-9b6c2a13f5d7","name":"새불고기식당","address":"경북 성주군 초전면 대고로 22","lat":35.9701413,"lng":128.2624809,"layer_type":"baeknyeon","city":"경북","source_url":"https://smartstore.naver.com/saebulgogi"},{"id":"f8be0d83-1360-4c5a-8939-4d737b94195e","name":"맛 50년 헛제사밥","address":"경북 안동시 석주로 201(상아동)","lat":36.5775582,"lng":128.7580624,"layer_type":"baeknyeon","city":"경북","source_url":null},{"id":"c383b727-5960-4170-aaad-22ab17829611","name":"삼송꾼만두","address":"경북 영천시 중앙동1길 12(문외동)","lat":35.9726382,"lng":128.9345964,"layer_type":"baeknyeon","city":"경북","source_url":"http://www.삼송꾼만두.kr/"},{"id":"58f2c4de-5b93-4df1-9398-bcedf9af1f16","name":"하눅베이커리","address":"경북 영천시 강변로 44(금노동)","lat":35.9607056,"lng":128.9273214,"layer_type":"baeknyeon","city":"경북","source_url":"https://smartstore.naver.com/rho818"},{"id":"36c8068e-7b64-49ac-9fc3-62ffb2a3fdf5","name":"정우숯불가든","address":"경북 청도군 청도읍 청화로 252","lat":35.6370596,"lng":128.7487564,"layer_type":"baeknyeon","city":"경북","source_url":null},{"id":"c8f1d27b-8e6c-47fa-aed2-576167b7e694","name":"주왕산청솔식당","address":"경북 청송군 주왕산면 공원길 162","lat":36.3921262,"lng":129.1428514,"layer_type":"baeknyeon","city":"경북","source_url":null},{"id":"46060d22-4d41-4b46-815c-57237efb823b","name":"㈜한미식당","address":"경북 칠곡군 왜관읍 석전로 159","lat":36.0036477,"lng":128.4135204,"layer_type":"baeknyeon","city":"경북","source_url":"https://www.instagram.com/hanmee_official"},{"id":"2e9caf23-e85c-4f3b-bca8-7af2504d7c5e","name":"새송정","address":"광주 광산구 광산로 31(송정동)","lat":35.1389181,"lng":126.7950454,"layer_type":"baeknyeon","city":"광주","source_url":"https://youtube.com/watch?v=DUxmXlbvaE4&si=UyIJKgcds-qxmZL2"},{"id":"c25b0ecc-1627-448b-811a-50fae02bda96","name":"1969양동통닭","address":"광주 서구 천변좌로 260-1, 1층(양동)","lat":35.1528768,"lng":126.9041915,"layer_type":"baeknyeon","city":"광주","source_url":null},{"id":"83f8518f-0d8f-433e-b8af-128bd615480f","name":"동곡원조할매손칼국수식당","address":"대구 달성군 하빈면 달구벌대로55길 101, 1층","lat":35.8780184,"lng":128.4178343,"layer_type":"baeknyeon","city":"대구","source_url":null},{"id":"6f1f0d6b-6ecb-4741-8b58-026664664892","name":"원조현풍박소선할매집곰탕㈜","address":"대구 달성군 현풍읍 현풍중앙로 56-1","lat":35.6945877,"lng":128.4457508,"layer_type":"baeknyeon","city":"대구","source_url":null},{"id":"ceee671e-1b10-4468-bcf9-d623fa7ce31f","name":"홍천뚝배기 본점식당","address":"대구 달성군 논공읍 논공로 814","lat":35.7276596,"lng":128.4390938,"layer_type":"baeknyeon","city":"대구","source_url":null},{"id":"255c4761-ed5b-40c9-9c06-fb1aa27746ab","name":"꼬꼬하우스","address":"대구 동구 아양로 53-5(신암동)","lat":35.8828201,"lng":128.6198354,"layer_type":"baeknyeon","city":"대구","source_url":null},{"id":"a341b60f-7709-4f25-81cf-3cb1e9811af3","name":"블루문레스토랑","address":"대구 동구 파계로 685(중대동)","lat":35.9910854,"lng":128.6367558,"layer_type":"baeknyeon","city":"대구","source_url":"http://www.bm80.co.kr"},{"id":"9f8e2792-3b32-4150-a336-3b870d067d90","name":"용해원","address":"대구 북구 태전로7길 6(태전동, 1층)","lat":35.9233132,"lng":128.5439266,"layer_type":"baeknyeon","city":"대구","source_url":null},{"id":"c966ddbb-da20-4ebe-a265-6ecd6c878294","name":"미림식당","address":"대구 중구 국채보상로93길 6(대신동)","lat":35.8931986,"lng":128.6455074,"layer_type":"baeknyeon","city":"대구","source_url":null},{"id":"bae6fd13-b73e-49d0-87d2-bfdb00de60bd","name":"부창생갈비","address":"대구 중구 국채보상로 492-12(동산동)","lat":35.8699806,"lng":128.5847221,"layer_type":"baeknyeon","city":"대구","source_url":null},{"id":"0d13e2e3-d194-4028-b921-7d119545c1ea","name":"오문창순대국밥식당","address":"대전 대덕구 한발대로 1153(중리동)","lat":36.359233,"lng":127.4265662,"layer_type":"baeknyeon","city":"대전","source_url":null},{"id":"5be7b26b-4eba-4f57-937a-d39d991344d3","name":"귀빈돌솥밥","address":"대전 서구 만년로68번길 21(만년동)","lat":36.3664201,"lng":127.3804672,"layer_type":"baeknyeon","city":"대전","source_url":null},{"id":"d8b0d255-096b-41e9-af43-9367dcdc0854","name":"사리원면옥","address":"대전 서구 둔산로31번길 77(둔산동)","lat":36.3496395,"lng":127.3878614,"layer_type":"baeknyeon","city":"대전","source_url":"http://sariwonkorea.co.kr"},{"id":"f8f26b64-4080-4d12-b00b-2d6e791cf5bb","name":"박속낙지","address":"대전 유성구 하기로 153(하기동)","lat":36.3897432,"lng":127.3459032,"layer_type":"baeknyeon","city":"대전","source_url":null},{"id":"6b905dc6-587b-42b9-94ae-abe466300cd5","name":"궁중해물탕조씨집","address":"부산 남구 진남로 7-11(대연동)","lat":35.135579,"lng":129.0911886,"layer_type":"baeknyeon","city":"부산","source_url":"https://www.hanjineasyorder.com/shop.php?slt_idx=250"},{"id":"2850583f-72ed-4a37-86cd-8b3866b8d492","name":"경양식 달과6펜스","address":"부산 동구 중앙대로226번길 7-2, 1층(초량동)","lat":35.1169526,"lng":129.042045,"layer_type":"baeknyeon","city":"부산","source_url":"https://blog.naver.com/elelel90"},{"id":"9f185eb4-4e89-43c5-b6cf-013f271b4ab2","name":"구기영 조방낙지","address":"부산 동래구 명장로20번길 60, 1,2층(명장동)","lat":35.2034577,"lng":129.1012898,"layer_type":"baeknyeon","city":"부산","source_url":"https://smartstore.naver.com/jobang1991"},{"id":"40a95a37-0040-4303-85a4-c6b4b6ec5c66","name":"어머니간장게장","address":"부산 중구 대청로137번길 8-2(중앙동3가)","lat":35.1034823,"lng":129.0352013,"layer_type":"baeknyeon","city":"부산","source_url":null},{"id":"71d3fe01-6d70-4e4d-8c20-4124b099250b","name":"선창횟집","address":"부산 해운대구 달맞이길62번길 67(중동)","lat":35.1568649,"lng":129.1737997,"layer_type":"baeknyeon","city":"부산","source_url":"https://www.instagram.com/seonchang1985?igsh=ODY4cmJtcGtjazY2"},{"id":"fa0cd94a-b264-4b53-a3d0-004dac53716c","name":"해운대원조할매국밥","address":"부산 해운대구 구남로21번길 27, 1,2층(우동)","lat":35.163252,"lng":129.1613098,"layer_type":"baeknyeon","city":"부산","source_url":"http://www.haeundae1962.com"},{"id":"21171733-e4ec-44a6-aa76-f4473b7dbb9f","name":"베이크 하우스","address":"서울 강남구 봉은사로71길 49, 1층(삼성동)","lat":37.5879254,"lng":127.0088672,"layer_type":"baeknyeon","city":"서울","source_url":null},{"id":"e8005536-9e70-4ece-9cf8-14c15e065c3e","name":"추어향","address":"전북 남원시 요천로 1455(쌍교동)","lat":35.4027466,"lng":127.3809788,"layer_type":"baeknyeon","city":"전북","source_url":null},{"id":"285ead33-3cdd-4f4d-bcdb-868e04c12d83","name":"별미손칼국수","address":"서울 강동구 양재대로141길 9, 1층(명일동, 서교빌딩)","lat":37.5510661,"lng":127.1432587,"layer_type":"baeknyeon","city":"서울","source_url":null},{"id":"36e074f8-f351-48d5-92aa-c7062fb7c63e","name":"초롱이고모부대찌개","address":"서울 강동구 상암로11길 4, 1층(암사동)","lat":37.5499149,"lng":127.1288349,"layer_type":"baeknyeon","city":"서울","source_url":null},{"id":"6b428915-e5fd-44ac-9377-41120220c94e","name":"옥류헌","address":"서울 강북구 삼양로181길 142(우이동)","lat":37.6699262,"lng":127.007975,"layer_type":"baeknyeon","city":"서울","source_url":"https://www.instagram.com/cafe_relax._"},{"id":"eb7f5162-0d07-4c40-97bd-cb57dc3189ff","name":"참누렁소","address":"서울 노원구 공릉로63길 13(하계동)","lat":37.6349396,"lng":127.070543,"layer_type":"baeknyeon","city":"서울","source_url":null},{"id":"95e91329-c978-4943-be22-6b59d73bda2e","name":"함스브로트","address":"서울 도봉구 도봉로 483(쌍문동)","lat":37.6489717,"lng":127.034591,"layer_type":"baeknyeon","city":"서울","source_url":null},{"id":"897721fc-bf11-483a-8655-8c854d48c9e2","name":"3대 삼계장인","address":"서울 서초구 반포대로28길 56-3, 1층(서초동, 한라빌딩)","lat":37.4913697,"lng":127.0115303,"layer_type":"baeknyeon","city":"서울","source_url":"https://catchtable.co.kr/3dbrz"},{"id":"9b23acb8-7c7a-4641-9ec9-12ae0f138780","name":"골목집","address":"서울 양천구 목동중앙북로 4(목동)","lat":37.5637841,"lng":127.00179,"layer_type":"baeknyeon","city":"서울","source_url":"https://www.instagram.com/golmokzzip"},{"id":"6fc3c82d-5feb-4f7e-a986-67fb0c72d2f5","name":"두꺼비집","address":"서울 은평구 연서로28길 5(대조동, 185-31,32,33,34,35)","lat":37.6181357,"lng":126.9209815,"layer_type":"baeknyeon","city":"서울","source_url":"https://www.instagram.com/wonjo.squid"},{"id":"02b913c0-70fa-4ab9-9867-25e0aabfcc06","name":"싸리골","address":"서울 은평구 서오릉로 195, 2층 202호(구산동)","lat":37.6126444,"lng":126.9155972,"layer_type":"baeknyeon","city":"서울","source_url":null},{"id":"d17237d6-d636-4177-a9ce-3cee77820096","name":"연서순대국","address":"서울 은평구 통일로 850, B동 6호(불광동)","lat":37.6192464,"lng":126.9214997,"layer_type":"baeknyeon","city":"서울","source_url":null},{"id":"edf3f1d6-e342-4b4a-a3bd-a9d665a44c3c","name":"바이크나라","address":"전북 전주시 덕진구 권삼득로 106(진북동)","lat":35.8303085,"lng":127.1433916,"layer_type":"baeknyeon","city":"전북","source_url":"https://blog.naver.com/bikenara2020"},{"id":"aabdc76b-cb68-40ac-9532-3cb091ff29b1","name":"그때산집","address":"전북 전주시 완산구 태평5길 13-4(태평동)","lat":35.8232851,"lng":127.1436703,"layer_type":"baeknyeon","city":"전북","source_url":"https://choibigo.github.io/the_house_of_memories/"},{"id":"4da1ee42-1fab-45db-9954-17459e822008","name":"진미명가식당","address":"제주 서귀포시 안덕면 사계남로 167","lat":33.2283929,"lng":126.307625,"layer_type":"baeknyeon","city":"제주","source_url":"http://064-794-0033.ezbuilder.co.kr"},{"id":"3c7aa415-d2b5-4d6f-9935-96a8d51b2316","name":"별장가든","address":"충남 청양군 청양읍 충절로 1494","lat":36.6975385,"lng":126.8430316,"layer_type":"baeknyeon","city":"충남","source_url":null},{"id":"0461a4d4-9b6a-4aa0-9937-958f0aa9dd7c","name":"남촌가든","address":"충남 금산군 제원면 낙안길 34-5","lat":36.1175603,"lng":127.5888935,"layer_type":"baeknyeon","city":"충남","source_url":"https://smartstore.naver.com/"},{"id":"42f77651-13db-4173-8a29-e9a2d73cd6a2","name":"옛날고도리추어탕","address":"충남 금산군 추부면 삼육로 6","lat":36.1905083,"lng":127.4662761,"layer_type":"baeknyeon","city":"충남","source_url":null},{"id":"3751f0b9-4d51-4702-b2f1-c62914370b2c","name":"원조옥수사","address":"충남 천안시 동남구 영성로 25-3, 1층 28호(사직동)","lat":36.8005838,"lng":127.1502889,"layer_type":"baeknyeon","city":"충남","source_url":null},{"id":"a826965b-4c65-497c-a870-f6987d39c781","name":"계화회관","address":"전북 부안군 행안면 변산로 95 (신기리)","lat":35.7290617,"lng":126.7106967,"layer_type":"baeknyeon","city":"전북","source_url":null},{"id":"234e705e-11bf-4c96-9d07-0c0ec03c278d","name":"빵굽는마을","address":"경기 안양시 동안구 관악대로 103 (비산동), 103에비뉴 107호","lat":37.3991502,"lng":126.9354443,"layer_type":"baeknyeon","city":"경기","source_url":"https://www.instagram.com/natural_bakery103/"},{"id":"d4d6d2a0-489e-4aa5-bca7-37ec456880b3","name":"새댁식육점","address":"대구 동구 아양로 53-9 (신암동)","lat":35.8831058,"lng":128.6198671,"layer_type":"baeknyeon","city":"대구","source_url":null},{"id":"f8eae652-4eec-466e-bf33-21ff41a5dc86","name":"박터진흥부네","address":"경북 경산시 와촌면 소월리 789-1","lat":35.956835,"lng":128.819838,"layer_type":"baeknyeon","city":"경북","source_url":"https://blog.naver.com/sdk5561"},{"id":"bfdbdb93-30d6-4aaf-a07a-29e91fc924b1","name":"금오산길","address":"경북 구미시 남통동 299","lat":36.1116334,"lng":128.3158883,"layer_type":"baeknyeon","city":"경북","source_url":"http://금오산길.com"},{"id":"160043a8-a4a4-44b6-930f-f29842903624","name":"김태주선산곱창㈜","address":"경북 구미시 송원서로 77 (원평동), 1층","lat":36.1246599,"lng":128.343298,"layer_type":"baeknyeon","city":"경북","source_url":null},{"id":"7576fc42-c015-4ea6-8a90-6f466de511be","name":"복터진집본점","address":"경북 구미시 인동북길 67 (인의동), 1층","lat":36.1007407,"lng":128.424954,"layer_type":"baeknyeon","city":"경북","source_url":"https://blog.naver.com/egfood"},{"id":"6bd85069-1a9d-488b-b31b-080c29eebcc5","name":"평양아바이순대국밥","address":"경북 구미시 고아읍 들성로 61 (원호리), 2동 1층","lat":36.1542485,"lng":128.3292951,"layer_type":"baeknyeon","city":"경북","source_url":"https://smartstore.naver.com/abiabi"},{"id":"0b65bf13-0032-460a-aa09-c1a68d80aa67","name":"데일리호스브라운","address":"대구 수성구 달구벌대로625길 9 (시지동)","lat":35.8432011,"lng":128.6993568,"layer_type":"baeknyeon","city":"대구","source_url":null},{"id":"b0e028e9-49c4-4086-b22c-551f13264406","name":"서민갈비","address":"대구 수성구 들안로 8-5 (두산동)","lat":35.8303074,"lng":128.617342,"layer_type":"baeknyeon","city":"대구","source_url":"https://www.instagram.com/1st__smbbq"},{"id":"73821f0b-0464-4d1a-8474-58e37852c039","name":"주왕산가든","address":"경북 청송군 주왕산면 주왕산로 508-9 (하의리), 2층","lat":36.378127,"lng":129.111348,"layer_type":"baeknyeon","city":"경북","source_url":"https://www.instagram.com/juwangsangarden_since1988/"},{"id":"a6830755-45ce-406e-910e-55014609d4a4","name":"포항 금산삼계탕","address":"경북 포항시 북구 중흥로 145 (죽도동)","lat":36.0176627,"lng":129.3533778,"layer_type":"baeknyeon","city":"경북","source_url":null},{"id":"8d4475d5-dd48-466a-90bc-1b22377c92e8","name":"미세스고등어본점","address":"경북 포항시 남구 정몽주로 873 (청림동)","lat":35.9930306,"lng":129.4051274,"layer_type":"baeknyeon","city":"경북","source_url":null},{"id":"703f8643-9ca6-4c20-83c3-48649433ca55","name":"팡페이장제과점","address":"경북 포항시 북구 대안길 69 (용흥동), 제일상가 가동 101호","lat":36.0420118,"lng":129.3503576,"layer_type":"baeknyeon","city":"경북","source_url":null},{"id":"728be983-8c08-400c-a24e-985ea2face9c","name":"한국관복어집","address":"경북 예천군 예천읍 군청길 42-4 (노하리), 1층","lat":36.65729,"lng":128.45405,"layer_type":"baeknyeon","city":"경북","source_url":null},{"id":"aa188df5-7aea-4fee-9506-d5f2704bb51c","name":"대들보함흥면옥","address":"대전 중구 계백로1583번길 39 (유천동), 1층","lat":36.3197873,"lng":127.3951818,"layer_type":"baeknyeon","city":"대전","source_url":null},{"id":"3cb280ab-caa2-44a6-82b3-f32c9cf0c749","name":"배영숙산야초밥상","address":"충북 보은군 속리산면 법주사로 253 (사내리)","lat":36.5308731,"lng":127.8212415,"layer_type":"baeknyeon","city":"충북","source_url":"https://www.bysfood.com"},{"id":"719ee6bc-9ddd-4c53-a2f9-af19dfa6ac71","name":"새강변식당","address":"충북 옥천군 군북면 성왕로 1564 (국원리)","lat":36.3395581,"lng":127.5885744,"layer_type":"baeknyeon","city":"충북","source_url":"https://blog.naver.com/newriversidegarden"},{"id":"f3ba5589-7fc5-4d77-9903-4adc9aeb7c1a","name":"재두식당","address":"경남 남해군 상주면 남해대로 918-13 (상주리)","lat":34.7394463,"lng":127.9849849,"layer_type":"baeknyeon","city":"경남","source_url":null},{"id":"3da81137-be52-4369-88ef-e3fffde3e382","name":"마산족발","address":"경남 창원시 마산합포구 오동서1길 15 (중성동), 1층","lat":35.2071475,"lng":128.5756427,"layer_type":"baeknyeon","city":"경남","source_url":null},{"id":"46a51818-e638-4da9-a78f-c8fac06da73b","name":"복주집","address":"경남 창녕군 남지읍 강변안길 10-1 (남지리)","lat":35.3873242,"lng":128.4813915,"layer_type":"baeknyeon","city":"경남","source_url":"http://cityfood.co.kr/h9/bogjujib"},{"id":"ded5af1e-277c-42c9-bed5-e061a8aa0916","name":"원조꼬리곰집","address":"부산 동래구 온천장로 52 (온천동), 1층","lat":35.2160787,"lng":129.0809073,"layer_type":"baeknyeon","city":"부산","source_url":"https://smartstore.naver.com/wonjo_tail"},{"id":"966e1938-6a99-4136-b641-645918702c61","name":"남천낙지","address":"부산 수영구 남천동로9번길 31 (남천동), 1층","lat":35.1441706,"lng":129.1104919,"layer_type":"baeknyeon","city":"부산","source_url":null},{"id":"f7d02db6-5921-4007-be0c-0fce10f3776d","name":"동해관","address":"강원 강릉시 율곡로 3020 (교동), 근로자복지회관 1층","lat":37.4435491,"lng":129.1647624,"layer_type":"baeknyeon","city":"강원","source_url":null},{"id":"b108cbac-aaf0-415d-8834-f3ab08dadd95","name":"보헤미안커피점","address":"강원 강릉시 연곡면 홍질목길 55-11 (영진리)","lat":37.864624,"lng":128.8424369,"layer_type":"baeknyeon","city":"강원","source_url":"http://instagram.com/bohemiancoffee_official"},{"id":"705f2b8d-309b-4adb-8301-de93af11ef74","name":"동막막국수","address":"강원 삼척시 근덕면 문의재로 3777-12 (동막리)","lat":37.3370748,"lng":129.2397825,"layer_type":"baeknyeon","city":"강원","source_url":null},{"id":"35f72fd2-1c35-4e20-a4ff-1f5d885a2727","name":"문어랑새우횟집","address":"강원 양양군 손양면 수산1길 43-1 (수산리)","lat":38.0794336,"lng":128.6721614,"layer_type":"baeknyeon","city":"강원","source_url":null},{"id":"fe66231f-7c4d-4d8c-8d82-99545c0e6d95","name":"미로정","address":"서울 강남구 테헤란로33길 19 (역삼동), 2층","lat":37.5031119,"lng":127.0389805,"layer_type":"baeknyeon","city":"서울","source_url":"https://www.instagram.com/mirojeong"},{"id":"3332bf5e-2655-4222-a006-8ccbb6c3a1df","name":"베이징덕","address":"서울 강남구 논현로 874 (신사동), 진성빌딩 1층","lat":37.5206174,"lng":127.029843,"layer_type":"baeknyeon","city":"서울","source_url":"https://go.catchtable.co.kr/2yhrev"},{"id":"01dd0860-98dc-4ea3-b035-bff2b4c93456","name":"능동아구탕","address":"서울 광진구 천호대로 544 (군자동), 1층","lat":37.5572243,"lng":127.0783989,"layer_type":"baeknyeon","city":"서울","source_url":"https://blog.naver.com/las1212"},{"id":"7aac7592-dbbe-40ae-88eb-45405c2b7759","name":"송가네감자탕","address":"서울 송파구 올림픽로35길 124 (신천동), 장미아파트 A상가 지하층 7-4, 7-3호","lat":37.5174925,"lng":127.1009378,"layer_type":"baeknyeon","city":"서울","source_url":null},{"id":"5aacb596-0714-453a-8c03-e0cf14288198","name":"홍농숯불갈비","address":"서울 양천구 신월로15길 1 (신월동)","lat":37.5188486,"lng":126.8419018,"layer_type":"baeknyeon","city":"서울","source_url":"https://smartstore.naver.com/hongnonggalbi"},{"id":"6fd8f993-6d4a-4ee7-8b16-1b4670ba90ce","name":"용금옥","address":"서울 종로구 자하문로 41-2 (통인동), 1층","lat":37.5797918,"lng":126.971111,"layer_type":"baeknyeon","city":"서울","source_url":"http://www.yonggeumok.co.kr"},{"id":"100b6d22-d3bc-4f9c-9455-39404d9b23a6","name":"동명능이백숙","address":"강원 고성군 거진읍 자산천로 36 (반암리, 동명막국수)동명능이백숙","lat":38.4199936,"lng":128.4633947,"layer_type":"baeknyeon","city":"강원","source_url":null},{"id":"215cc112-6555-4f5a-a09a-b593b719e263","name":"라르고경양식","address":"경기 동두천시 삼육사로 1273 (광암동)1층","lat":37.8924282,"lng":127.0892572,"layer_type":"baeknyeon","city":"경기","source_url":null},{"id":"2ff992c1-e777-46ef-8ccf-ced7cad2d87b","name":"백송짜글짜글","address":"충북 청주시 흥덕구 옥산면 청주역로 635 (오산리)1층","lat":36.6643198,"lng":127.3782329,"layer_type":"baeknyeon","city":"충북","source_url":null},{"id":"42c06ea9-582d-4697-a52f-706e4518a9fc","name":"청화집순대","address":"충남 천안시 동남구 병천면 충절로 1749","lat":36.7623395,"lng":127.2992254,"layer_type":"baeknyeon","city":"충남","source_url":null},{"id":"6f183d14-3755-48b8-8062-5f27afca2f36","name":"학화호도과자","address":"충남 천안시 동남구 대흥로 233(대흥동)","lat":36.8190472,"lng":127.1591131,"layer_type":"baeknyeon","city":"충남","source_url":"http://www.hakhwa1934.com/"},{"id":"072f17dd-4f82-4e6e-8a1c-26ef1781225c","name":"칠갑산골","address":"충남 청양군 대치면 장곡길 147","lat":36.4104821,"lng":126.85305,"layer_type":"baeknyeon","city":"충남","source_url":null},{"id":"5446c45e-4887-477d-b857-a8771dedeef6","name":"경희식당","address":"충북 보은군 속리산면 사내7길 11-4","lat":36.5324087,"lng":127.8216452,"layer_type":"baeknyeon","city":"충북","source_url":"http://ikyunghee.co.kr/"},{"id":"b4a81df1-7b88-4006-9ad2-577f2450bd12","name":"감골생고기타운","address":"충북 영동군 영동읍 계산로1길 32","lat":36.1733132,"lng":127.7757896,"layer_type":"baeknyeon","city":"충북","source_url":null},{"id":"dc366861-8324-44eb-b436-03ed65bd7126","name":"강박사냉면숯불갈비","address":"충북 제천시 청전대로 91(청전동)","lat":37.1487103,"lng":128.2081509,"layer_type":"baeknyeon","city":"충북","source_url":null},{"id":"fc484687-0814-4ced-baf0-79fea8956042","name":"덩실분식","address":"충북 제천시 독순로 6길 5(의림동)","lat":37.1393888,"lng":128.2083507,"layer_type":"baeknyeon","city":"충북","source_url":"https://blog.naver.com/1965dsds"},{"id":"eafb8899-36fd-4ecd-9b45-46f275399944","name":"청풍황금송어","address":"충북 제천시 금성면 청풍호로39길 25","lat":37.0300788,"lng":128.1802006,"layer_type":"baeknyeon","city":"충북","source_url":null},{"id":"8b927fd8-cb99-475c-a106-9c037c71b32d","name":"서문우동","address":"충북 청주시 상당구 무심동로392번길 8(서문동)","lat":36.6354956,"lng":127.4851545,"layer_type":"baeknyeon","city":"충북","source_url":null},{"id":"99ec9491-78a3-4f34-a654-cadfca82d677","name":"연게소문","address":"충북 청주시 서원구 수곡로57번길 32-2(수곡동)","lat":36.6162751,"lng":127.4710416,"layer_type":"baeknyeon","city":"충북","source_url":"https://booking.naver.com/booking/6/bizes/287850"},{"id":"e6f6a06a-94e1-49ca-9859-5942053fcd9e","name":"㈜옹기장터","address":"충청북도 충주시 연수양지말길 6(연수동)","lat":36.9941711,"lng":127.9425757,"layer_type":"baeknyeon","city":"충북","source_url":null},{"id":"038a025a-348a-4304-8f4a-064e6ee08545","name":"자연가든","address":"충북 충주시 살미면 중원대로 2461","lat":36.9053185,"lng":127.9560457,"layer_type":"baeknyeon","city":"충북","source_url":"https://blog.naver.com/ya0781"},{"id":"0d3151d3-85b6-48d4-8354-acf9c705adda","name":"하얀마을 제과점","address":"전남 고흥군 도화면 동신길 34","lat":34.5103111,"lng":127.3199267,"layer_type":"baeknyeon","city":"전남","source_url":"https://www.instagram.com/white__village?utm_medium=copy_link"},{"id":"d879bbd2-7622-4186-86bf-71ffb728074a","name":"독천식당","address":"전남 영암군 학산면 독천로 162-1","lat":34.7939671,"lng":126.3855965,"layer_type":"baeknyeon","city":"전남","source_url":"http://mliving.kr/2426528/"},{"id":"8ee5be6c-a467-4aa8-b9f5-99df4be023c6","name":"배불뚝집 본점","address":"전북 익산시 하나로6길 19(어양동)","lat":35.9610171,"lng":126.9816908,"layer_type":"baeknyeon","city":"전북","source_url":"http://www.odr.kr/M6yqKk"},{"id":"cc14a6c7-6c5e-461b-820c-f4c3759cfa54","name":"무궁화한정식","address":"전북 전주시 덕진구 권삼득로 436(덕진동2가)","lat":35.8500758,"lng":127.1171621,"layer_type":"baeknyeon","city":"전북","source_url":null},{"id":"b41c8ea6-49f1-42a9-bac0-5e6878c8b32e","name":"레스토랑마리서사본점","address":"전북 정읍시 수성택지4길 20-12(수성동)","lat":35.5800319,"lng":126.8549284,"layer_type":"baeknyeon","city":"전북","source_url":null},{"id":"71693eb6-a5bd-41e7-94a6-9a3952d582b1","name":"도라지식당","address":"제주 제주시 연삼로 128(오라삼동)","lat":33.4927435,"lng":126.5059731,"layer_type":"baeknyeon","city":"제주","source_url":null},{"id":"b561de1f-7d22-4acb-a0b8-77d55390589d","name":"신설오름","address":"제주 제주시 고마로 17길 2(일도이동)","lat":33.5054682,"lng":126.5415629,"layer_type":"baeknyeon","city":"제주","source_url":null},{"id":"7b612cb0-0257-4294-b6b3-497303be34c1","name":"충효닭집","address":"경북 경주시 원효로51번길 5, 1층(성건동)","lat":35.8427575,"lng":129.2063073,"layer_type":"baeknyeon","city":"경북","source_url":"http://충효닭집.com"},{"id":"e9a8ab08-908f-4305-b23b-648d8996eb66","name":"배신식당","address":"경북 김천시 감문면 배시내길 46","lat":36.1909595,"lng":128.23065,"layer_type":"baeknyeon","city":"경북","source_url":null},{"id":"c403ff1b-97f7-446b-842a-776b5743e525","name":"천생산오리사냥","address":"경북 구미시 천생산길 38(구평동)","lat":36.0957236,"lng":128.45155,"layer_type":"baeknyeon","city":"경북","source_url":null},{"id":"956e3ebb-2a83-4a6a-9a7b-55e8448d1b38","name":"길성관","address":"경북 포항시 북구 불종로 42(대흥동)","lat":36.0385171,"lng":129.363738,"layer_type":"baeknyeon","city":"경북","source_url":null},{"id":"7472cc11-c500-4740-a35a-60f06fc58481","name":"포항특미물회식당","address":"경북 포항시 북구 동빈로 106(동빈1가)","lat":36.0463967,"lng":129.3701115,"layer_type":"baeknyeon","city":"경북","source_url":null},{"id":"d7bda4da-20dd-46ab-9e6d-6a11d185e603","name":"대덕식당","address":"대구 남구 앞산순환로 443(대명동)","lat":35.8311455,"lng":128.5735994,"layer_type":"baeknyeon","city":"대구","source_url":null},{"id":"ecfddd99-64e1-4248-94cc-ca60da073eff","name":"레이몬드베이커리","address":"대구 달서구 선원로 241, 108호(용산동, 보성2차상가)","lat":35.8591271,"lng":128.5194758,"layer_type":"baeknyeon","city":"대구","source_url":null},{"id":"5baf10ca-172e-4c51-aba8-d27d037af92c","name":"강원도집","address":"대구 달성군 가창면 가창로176길 18","lat":35.7901261,"lng":128.6359824,"layer_type":"baeknyeon","city":"대구","source_url":null},{"id":"123ed7dd-803d-4a36-bbea-c6557e79bb71","name":"녹양구이","address":"대구 수성구 무학로17길 21(두산동)","lat":35.8302629,"lng":128.617669,"layer_type":"baeknyeon","city":"대구","source_url":null},{"id":"b220ea65-4bca-48ef-9260-4c02169f82ea","name":"브레드바바","address":"대구 수성구 수성로69길 55(수성동1가)","lat":35.8559576,"lng":128.6105181,"layer_type":"baeknyeon","city":"대구","source_url":"https://blog.naver.com/breadbaba"},{"id":"789f4e5b-9711-4f17-a3b8-f73eb7a0bc95","name":"삼수장어","address":"대구 수성구 신천동로 442(수성동4가)","lat":35.863147,"lng":128.612258,"layer_type":"baeknyeon","city":"대구","source_url":"https://www.instagram.com/samsoo_1992"},{"id":"955a1d4e-b2be-4d8c-b53f-37e95f8aabcb","name":"용지봉","address":"대구 수성구 들안로 9(상동, 405-2, 407-5)","lat":35.8305915,"lng":128.6162478,"layer_type":"baeknyeon","city":"대구","source_url":"https://blog.naver.com/yongjibong"},{"id":"b378a650-0004-4aa4-8b96-98cade43262e","name":"진로집","address":"대전 중구 중교로 45-5(대흥동)","lat":36.3258914,"lng":127.4247346,"layer_type":"baeknyeon","city":"대전","source_url":null},{"id":"fa4e1e86-793f-46de-b742-80617be1a10e","name":"우보설렁탕","address":"세종 조치원읍 문화로 24","lat":36.6037755,"lng":127.3010768,"layer_type":"baeknyeon","city":"세종","source_url":"http://woobofood.co.kr/"},{"id":"de66cdc2-9400-4b13-9afe-13e440306d23","name":"결성칼국수","address":"충남 홍성군 결성면 구성남로 31","lat":36.5272492,"lng":126.5480551,"layer_type":"baeknyeon","city":"충남","source_url":null},{"id":"9dcc3668-da02-43c4-8f76-622cce5e2272","name":"삽다리곱창전문점","address":"충남 홍성군 홍성읍 도청대로 6","lat":36.8911623,"lng":126.6246457,"layer_type":"baeknyeon","city":"충남","source_url":null},{"id":"382f1ece-7fd8-498d-aa46-727fa47cfd8c","name":"오박사냉면전문식당","address":"충북 진천군 진천읍 중앙동 1길 2","lat":36.8545044,"lng":127.4447581,"layer_type":"baeknyeon","city":"충북","source_url":null},{"id":"925014c9-250e-468e-b196-465b694bfe4a","name":"금호송어장","address":"충북 청주시 서원구 현도면 노산하석로 166","lat":36.4592215,"lng":127.4604307,"layer_type":"baeknyeon","city":"충북","source_url":null},{"id":"b8098d48-24c0-4996-b266-171cdc8d60d4","name":"부모산가든","address":"충북 청주시 흥덕구 2순환로 1167번길 25(복대동)","lat":36.6319814,"lng":127.4278172,"layer_type":"baeknyeon","city":"충북","source_url":"https://www.instagram.com/galbi3sae"},{"id":"f99d7137-824d-45a4-8090-cb119a8e5dbb","name":"신사동염소탕","address":"충북 청주시 흥덕구 직지대로582번길 15(봉명동)","lat":36.6423914,"lng":127.4577571,"layer_type":"baeknyeon","city":"충북","source_url":null},{"id":"df718101-6b3e-4274-9d4b-aa394d9dd53c","name":"원조백년옻닭","address":"충북 청주시 청원구 교서로 104-1(우암동)","lat":36.6456937,"lng":127.4840596,"layer_type":"baeknyeon","city":"충북","source_url":null},{"id":"962f8ee1-a04d-4877-b8db-d438d8f9053b","name":"청주폐백","address":"충북 청주시 흥덕구 흥덕로 90-1(운천동)","lat":36.6431672,"lng":127.4725406,"layer_type":"baeknyeon","city":"충북","source_url":null},{"id":"521f9b3a-5a7b-472d-904b-f3d35e16278b","name":"만나밥집","address":"충북 충주시 동수 2길 35(연수동)","lat":36.9861996,"lng":127.9378352,"layer_type":"baeknyeon","city":"충북","source_url":"https://smartstore.naver.com/mannababzip"},{"id":"def644cd-0178-4476-bc42-21f52aa4b15a","name":"원조할매추어탕","address":"경남 김해시 식만로348번길 44-1(불암동)","lat":35.2183316,"lng":128.9217851,"layer_type":"baeknyeon","city":"경남","source_url":null},{"id":"4db2284a-2d9e-4ec6-9889-1952281d0dc6","name":"강변횟집","address":"경남 창원시 마산회원구 석전동16길 25(석전동)","lat":35.3790018,"lng":128.4739267,"layer_type":"baeknyeon","city":"경남","source_url":null},{"id":"ab7f7530-4ca0-41a7-8a99-120aab6ffcf8","name":"케네디홀레스토랑","address":"경남 통영시 미수해안로 125-5(미수동, 마이웨이상가4층)","lat":34.8336124,"lng":128.4108325,"layer_type":"baeknyeon","city":"경남","source_url":null},{"id":"c103a52b-e081-4e5e-b5b3-3c077c9fc837","name":"경주박가국밥","address":"부산 기장군 정관읍 구연2로 18","lat":35.1673493,"lng":129.1163882,"layer_type":"baeknyeon","city":"부산","source_url":null},{"id":"49dc0537-5622-4c16-92a6-e40d06604f0e","name":"㈜신발원","address":"부산 동구 대영로243번길 62(초량동)","lat":35.114819,"lng":129.0387077,"layer_type":"baeknyeon","city":"부산","source_url":"https://smartstore.naver.com/dsk2209"},{"id":"3a6b2fe4-d5e8-4e9c-a985-edf67ba4d520","name":"㈜워터스톤","address":"부산 수영구 민락수변로 25(민락동)","lat":35.1535686,"lng":129.1245145,"layer_type":"baeknyeon","city":"부산","source_url":null},{"id":"b40b3a9e-65ae-4864-bbc0-e31ca347b324","name":"오부자냄비물회","address":"강원 동해시 일출로 151, 10호(묵호진동,삼양비취타워)","lat":37.556411,"lng":129.120869,"layer_type":"baeknyeon","city":"강원","source_url":"https://band.us/@obooja"},{"id":"a6cb3824-0af0-4b28-8f12-356f23a77460","name":"황해횟집","address":"강원 동해시 일출로 189(묵호진동)","lat":37.5591161,"lng":129.1199286,"layer_type":"baeknyeon","city":"강원","source_url":"https://blog.naver.com/hys86370"},{"id":"3a851867-d036-44ab-93b6-143864bde3ee","name":"일미장","address":"강원 인제군 인제읍 인제로 188번길 1","lat":38.0686666,"lng":128.1717112,"layer_type":"baeknyeon","city":"강원","source_url":null},{"id":"8f7cd3fb-725b-497e-a629-6644b7dff93e","name":"진부령식당","address":"강원 인제군 북면 진부령로 100","lat":38.223939,"lng":128.3682922,"layer_type":"baeknyeon","city":"강원","source_url":"https://blog.naver.com/goodhousejin"},{"id":"e246faa1-780d-4c69-9e5a-ddcfec023ce6","name":"오수물막국수","address":"강원 춘천시 신북읍 맥국2길 15","lat":37.9379827,"lng":127.7771649,"layer_type":"baeknyeon","city":"강원","source_url":"https://smartstore.naver.com/osmmak"},